{"AF":{"id":"4","name":"Afghanistan","iso3":"AFG","iso2":"AF","longitude":"67.7099533081055","latitude":"33.9391098022461","exists":"1","jname":"アフガニスタン","jpnm":"アフガニスタン・イスラム国","jpni":"アフガニスタン","logo":"af","country":"1","kata":"アフガニスタン","akas":"ア","lcr":"#4ABA5B","ename":"Afghanistan","alph":"A","region":"Asia","region_ja":"アジア"},"AL":{"id":"8","name":"Albania","iso3":"ALB","iso2":"AL","longitude":"20.1683311462402","latitude":"41.1533317565918","exists":"1","jname":"アルバニア","jpnm":"アルバニア共和国","jpni":"アルバニア","logo":"al","country":"1","kata":"アルバニア","akas":"ア","lcr":"#A3E13A","ename":"Albania","alph":"A","region":"Europe","region_ja":"ヨーロッパ"},"DZ":{"id":"12","name":"Algeria","iso3":"DZA","iso2":"DZ","longitude":"1.65962600708008","latitude":"28.0338859558105","exists":"1","jname":"アルジェリア","jpnm":"アルジェリア民主人民共和国","jpni":"アルジェリア","logo":"dz","country":"1","kata":"アルジェリア","akas":"ア","lcr":"#AE52AE","ename":"Algeria","alph":"A","region":"Africa","region_ja":"アフリカ"},"AS":{"id":"16","name":"American Samoa","iso3":"ASM","iso2":"AS","longitude":"-170.696182250977","latitude":"-14.3060207366943","exists":"1","jname":"アメリカ領サモア","jpnm":"米領サモア","jpni":"アメリカ領サモア","logo":"as","country":"1","kata":"アメリカ領サモア","akas":"ア","lcr":"#C7DD73","ename":"American Samoa","alph":"A","region":"Oceania","region_ja":"オセアニア"},"AD":{"id":"20","name":"Andorra","iso3":"AND","iso2":"AD","longitude":"1.52180099487305","latitude":"42.5062866210938","exists":"1","jname":"アンドラ","jpnm":"アンドラ公国","jpni":"アンドラ","logo":"ad","country":"1","kata":"アンドラ","akas":"ア","lcr":"#3AE7B0","ename":"Andorra","alph":"A","region":"Europe","region_ja":"ヨーロッパ"},"AO":{"id":"24","name":"Angola","iso3":"AGO","iso2":"AO","longitude":"17.8738861083984","latitude":"-11.2026920318604","exists":"1","jname":"アンゴラ","jpnm":"アンゴラ共和国","jpni":"アンゴラ","logo":"ao","country":"1","kata":"アンゴラ","akas":"ア","lcr":"#7DE6F3","ename":"Angola","alph":"A","region":"Africa","region_ja":"アフリカ"},"AG":{"id":"28","name":"Antigua and Barbuda","iso3":"ATG","iso2":"AG","longitude":"-61.78918","latitude":"17.07867","exists":"1","jname":"アンティグア・バーブーダ","jpnm":"アンチグア・バーブーダ","jpni":"アンティグア・バーブーダ","logo":"ag","country":"1","kata":"アンティグア・バーブーダ","akas":"ア","lcr":"#72A7C6","ename":"Antigua and Barbuda","alph":"A","region":"Americas","region_ja":"アメリカ"},"AZ":{"id":"31","name":"Azerbaijan","iso3":"AZE","iso2":"AZ","longitude":"47.5769271850586","latitude":"40.1431045532227","exists":"1","jname":"アゼルバイジャン","jpnm":"アゼルバイジャン共和国","jpni":"アゼルバイジャン","logo":"az","country":"1","kata":"アゼルバイジャン","akas":"ア","lcr":"#DFA5C0","ename":"Azerbaijan","alph":"A","region":"Asia","region_ja":"アジア"},"AR":{"id":"32","name":"Argentina","iso3":"ARG","iso2":"AR","longitude":"-63.6166725158691","latitude":"-38.4160957336426","exists":"1","jname":"アルゼンチン","jpnm":"アルゼンチン共和国","jpni":"アルゼンチン","logo":"ar","country":"1","kata":"アルゼンチン","akas":"ア","lcr":"#C0EDF6","ename":"Argentina","alph":"A","region":"Americas","region_ja":"アメリカ"},"AU":{"id":"36","name":"Australia","iso3":"AUS","iso2":"AU","longitude":"133.775131225586","latitude":"-25.2743988037109","exists":"1","jname":"オーストラリア","jpnm":"オーストラリア","jpni":"オーストラリア","logo":"au","country":"1","kata":"オーストラリア","akas":"ア","lcr":"#C924B5","ename":"Australia","alph":"A","region":"Oceania","region_ja":"オセアニア"},"AT":{"id":"40","name":"Austria","iso3":"AUT","iso2":"AT","longitude":"14.5500717163086","latitude":"47.5162315368652","exists":"1","jname":"オーストリア","jpnm":"オーストリア共和国","jpni":"オーストリア","logo":"at","country":"1","kata":"オーストリア","akas":"ア","lcr":"#8853CE","ename":"Austria","alph":"A","region":"Europe","region_ja":"ヨーロッパ"},"BS":{"id":"44","name":"Bahamas","iso3":"BHS","iso2":"BS","longitude":"-77.3962783813476","latitude":"25.0342807769775","exists":"1","jname":"バハマ","jpnm":"バハマ国","jpni":"バハマ","logo":"bs","country":"1","kata":"バハマ","akas":"ハ","lcr":"#F09558","ename":"Bahamas","alph":"B","region":"Americas","region_ja":"アメリカ"},"BH":{"id":"48","name":"Bahrain","iso3":"BHR","iso2":"BH","longitude":"50.5577011108398","latitude":"26.0666999816895","exists":"1","jname":"バーレーン","jpnm":"バーレーン王国","jpni":"バーレーン","logo":"bh","country":"1","kata":"バーレーン","akas":"ハ","lcr":"#F5F12D","ename":"Bahrain","alph":"B","region":"Asia","region_ja":"アジア"},"BD":{"id":"50","name":"Bangladesh","iso3":"BGD","iso2":"BD","longitude":"90.356330871582","latitude":"23.6849937438965","exists":"1","jname":"バングラデシュ","jpnm":"バングラデシュ人民共和国","jpni":"バングラデシュ","logo":"bd","country":"1","kata":"バングラデシュ","akas":"ハ","lcr":"#BC8DF4","ename":"Bangladesh","alph":"B","region":"Asia","region_ja":"アジア"},"AM":{"id":"51","name":"Armenia","iso3":"ARM","iso2":"AM","longitude":"45.0381889343262","latitude":"40.0690994262695","exists":"1","jname":"アルメニア","jpnm":"アルメニア共和国","jpni":"アルメニア","logo":"am","country":"1","kata":"アルメニア","akas":"ア","lcr":"#BBF35A","ename":"Armenia","alph":"A","region":"Asia","region_ja":"アジア"},"BB":{"id":"52","name":"Barbados","iso3":"BRB","iso2":"BB","longitude":"-59.55643","latitude":"13.16705","exists":"1","jname":"バルバドス","jpnm":"バルバドス","jpni":"バルバドス","logo":"bb","country":"1","kata":"バルバドス","akas":"ハ","lcr":"#FBCBB4","ename":"Barbados","alph":"B","region":"Americas","region_ja":"アメリカ"},"BE":{"id":"56","name":"Belgium","iso3":"BEL","iso2":"BE","longitude":"4.46993589401245","latitude":"50.5038871765137","exists":"1","jname":"ベルギー","jpnm":"ベルギー王国","jpni":"ベルギー","logo":"be","country":"1","kata":"ベルギー","akas":"ハ","lcr":"#CAEAD3","ename":"Belgium","alph":"B","region":"Europe","region_ja":"ヨーロッパ"},"BM":{"id":"60","name":"Bermuda","iso3":"BMU","iso2":"BM","longitude":"-64.7505035400391","latitude":"32.3078002929688","exists":"1","jname":"バミューダ諸島","jpnm":"バミューダ諸島","jpni":"バミューダ諸島","logo":"bm","country":"1","kata":"バミューダ諸島","akas":"ハ","lcr":"#C7F486","ename":"Bermuda","alph":"B","region":"Americas","region_ja":"アメリカ"},"BT":{"id":"64","name":"Bhutan","iso3":"BTN","iso2":"BT","longitude":"90.4336013793945","latitude":"27.5141620635986","exists":"1","jname":"ブータン","jpnm":"ブータン王国","jpni":"ブータン","logo":"bt","country":"1","kata":"ブータン","akas":"ハ","lcr":"#F047F0","ename":"Bhutan","alph":"B","region":"Asia","region_ja":"アジア"},"BO":{"id":"68","name":"Bolivia (Plurinational State of)","iso3":"BOL","iso2":"BO","longitude":"-63.5886535644531","latitude":"-16.290153503418","exists":"1","jname":"ボリビア多民族国","jpnm":"ボリビア多民族国","jpni":"ボリビア多民族国","logo":"bo","country":"1","kata":"ボリビア多民族国","akas":"ハ","lcr":"#E8A9AB","ename":"Bolivia","alph":"B","region":"Americas","region_ja":"アメリカ"},"BA":{"id":"70","name":"Bosnia and Herzegovina","iso3":"BIH","iso2":"BA","longitude":"17.6790752410889","latitude":"43.915885925293","exists":"1","jname":"ボスニア・ヘルツェゴビナ","jpnm":"ボスニア・ヘルツェゴビナ","jpni":"ボスニア・ヘルツェゴビナ","logo":"ba","country":"1","kata":"ボスニア・ヘルツェゴビナ","akas":"ハ","lcr":"#6EFAB9","ename":"Bosnia and Herzegovina","alph":"B","region":"Europe","region_ja":"ヨーロッパ"},"BW":{"id":"72","name":"Botswana","iso3":"BWA","iso2":"BW","longitude":"24.6848659515381","latitude":"-22.3284740447998","exists":"1","jname":"ボツワナ","jpnm":"ボツワナ共和国","jpni":"ボツワナ","logo":"bw","country":"1","kata":"ボツワナ","akas":"ハ","lcr":"#7FF3F1","ename":"Botswana","alph":"B","region":"Africa","region_ja":"アフリカ"},"BR":{"id":"76","name":"Brazil","iso3":"BRA","iso2":"BR","longitude":"-51.9252815246582","latitude":"-14.2350044250488","exists":"1","jname":"ブラジル","jpnm":"ブラジル連邦共和国","jpni":"ブラジル","logo":"br","country":"1","kata":"ブラジル","akas":"ハ","lcr":"#579BC5","ename":"Brazil","alph":"B","region":"Americas","region_ja":"アメリカ"},"BZ":{"id":"84","name":"Belize","iso3":"BLZ","iso2":"BZ","longitude":"-88.4976501464844","latitude":"17.1898765563965","exists":"1","jname":"ベリーズ","jpnm":"ベリーズ","jpni":"ベリーズ","logo":"bz","country":"1","kata":"ベリーズ","akas":"ハ","lcr":"#C6EE29","ename":"Belize","alph":"B","region":"Americas","region_ja":"アメリカ"},"SB":{"id":"90","name":"Solomon Islands","iso3":"SLB","iso2":"SB","longitude":"160.156188964844","latitude":"-9.64570999145508","exists":"1","jname":"ソロモン諸島","jpnm":"ソロモン諸島","jpni":"ソロモン諸島","logo":"sb","country":"1","kata":"ソロモン諸島","akas":"サ","lcr":"#9D8925","ename":"Solomon Islands","alph":"S","region":"Oceania","region_ja":"オセアニア"},"VG":{"id":"92","name":"British Virgin Islands","iso3":"VGB","iso2":"VG","longitude":"-64.6399688720703","latitude":"18.4206943511963","exists":"1","jname":"イギリス領ヴァージン諸島","jpnm":"英領バージン諸島","jpni":"イギリス領ヴァージン諸島","logo":"vg","country":"1","kata":"イギリス領ヴァージン諸島","akas":"ア","lcr":"#6DE593","ename":"British Virgin Islands","alph":"B","region":"Americas","region_ja":"アメリカ"},"BN":{"id":"96","name":"Brunei Darussalam","iso3":"BRN","iso2":"BN","longitude":"114.727668762207","latitude":"4.53527688980103","exists":"1","jname":"ブルネイ・ダルサラーム","jpnm":"ブルネイ・ダルサラーム国","jpni":"ブルネイ・ダルサラーム","logo":"bn","country":"1","kata":"ブルネイ・ダルサラーム","akas":"ハ","lcr":"#82F63C","ename":"Brunei Darussalam","alph":"B","region":"Asia","region_ja":"アジア"},"BG":{"id":"100","name":"Bulgaria","iso3":"BGR","iso2":"BG","longitude":"25.4858303070068","latitude":"42.7338829040527","exists":"1","jname":"ブルガリア","jpnm":"ブルガリア共和国","jpni":"ブルガリア","logo":"bg","country":"1","kata":"ブルガリア","akas":"ハ","lcr":"#DFCCCB","ename":"Bulgaria","alph":"B","region":"Europe","region_ja":"ヨーロッパ"},"MM":{"id":"104","name":"Myanmar","iso3":"MMR","iso2":"MM","longitude":"95.9559707641602","latitude":"21.9162216186523","exists":"1","jname":"ミャンマー","jpnm":"ミャンマー連邦","jpni":"ミャンマー","logo":"mm","country":"1","kata":"ミャンマー","akas":"マ","lcr":"#C95FCE","ename":"Myanmar","alph":"M","region":"Asia","region_ja":"アジア"},"BI":{"id":"108","name":"Burundi","iso3":"BDI","iso2":"BI","longitude":"29.9188861846924","latitude":"-3.37305593490601","exists":"1","jname":"ブルンジ","jpnm":"ブルンジ共和国","jpni":"ブルンジ","logo":"bi","country":"1","kata":"ブルンジ","akas":"ハ","lcr":"#BDDEE2","ename":"Burundi","alph":"B","region":"Africa","region_ja":"アフリカ"},"BY":{"id":"112","name":"Belarus","iso3":"BLR","iso2":"BY","longitude":"27.9533882141113","latitude":"53.7098083496094","exists":"1","jname":"ベラルーシ","jpnm":"ベラルーシ共和国","jpni":"ベラルーシ","logo":"by","country":"1","kata":"ベラルーシ","akas":"ハ","lcr":"#7C9D7E","ename":"Belarus","alph":"B","region":"Europe","region_ja":"ヨーロッパ"},"KH":{"id":"116","name":"Cambodia","iso3":"KHM","iso2":"KH","longitude":"104.990966796875","latitude":"12.5656785964966","exists":"1","jname":"カンボジア","jpnm":"カンボジア王国","jpni":"カンボジア","logo":"kh","country":"1","kata":"カンボジア","akas":"カ","lcr":"#EC93D2","ename":"Cambodia","alph":"C","region":"Asia","region_ja":"アジア"},"CM":{"id":"120","name":"Cameroon","iso3":"CMR","iso2":"CM","longitude":"12.3547220230103","latitude":"7.36972188949585","exists":"1","jname":"カメルーン","jpnm":"カメルーン共和国","jpni":"カメルーン","logo":"cm","country":"1","kata":"カメルーン","akas":"カ","lcr":"#CCE0F3","ename":"Cameroon","alph":"C","region":"Africa","region_ja":"アフリカ"},"CA":{"id":"124","name":"Canada","iso3":"CAN","iso2":"CA","longitude":"-106.346771240234","latitude":"56.1303672790527","exists":"1","jname":"カナダ","jpnm":"カナダ","jpni":"カナダ","logo":"ca","country":"1","kata":"カナダ","akas":"カ","lcr":"#77849E","ename":"Canada","alph":"C","region":"Americas","region_ja":"アメリカ"},"CV":{"id":"132","name":"Cabo Verde","iso3":"CPV","iso2":"CV","longitude":"-23.6051731109619","latitude":"15.1201419830322","exists":"1","jname":"カーボベルデ","jpnm":"カーボベルデ共和国","jpni":"カーボベルデ","logo":"cv","country":"1","kata":"カーボベルデ","akas":"カ","lcr":"#66D795","ename":"Cabo Verde","alph":"C","region":"Africa","region_ja":"アフリカ"},"KY":{"id":"136","name":"Cayman Islands","iso3":"CYM","iso2":"KY","longitude":"-81.2546005249023","latitude":"19.3132991790771","exists":"1","jname":"ケイマン諸島","jpnm":"ケイマン諸島","jpni":"ケイマン諸島","logo":"ky","country":"1","kata":"ケイマン諸島","akas":"カ","lcr":"#C47E18","ename":"Cayman Islands","alph":"C","region":"Americas","region_ja":"アメリカ"},"CF":{"id":"140","name":"Central African Republic","iso3":"CAF","iso2":"CF","longitude":"20.9394435882568","latitude":"6.61111116409302","exists":"1","jname":"中央アフリカ共和国","jpnm":"中央アフリカ共和国","jpni":"中央アフリカ共和国","logo":"cf","country":"1","kata":"チュウオウアフリカキョウワコク","akas":"タ","lcr":"#F9E9EE","ename":"Central African Republic","alph":"C","region":"Africa","region_ja":"アフリカ"},"LK":{"id":"144","name":"Sri Lanka","iso3":"LKA","iso2":"LK","longitude":"80.7717971801758","latitude":"7.87305402755737","exists":"1","jname":"スリランカ","jpnm":"スリランカ民主社会主義共和国","jpni":"スリランカ","logo":"lk","country":"1","kata":"スリランカ","akas":"サ","lcr":"#E372C6","ename":"Sri Lanka","alph":"S","region":"Asia","region_ja":"アジア"},"TD":{"id":"148","name":"Chad","iso3":"TCD","iso2":"TD","longitude":"18.7322063446045","latitude":"15.4541664123535","exists":"1","jname":"チャド","jpnm":"チャド共和国","jpni":"チャド","logo":"td","country":"1","kata":"チャド","akas":"タ","lcr":"#E5AE99","ename":"Chad","alph":"C","region":"Africa","region_ja":"アフリカ"},"CL":{"id":"152","name":"Chile","iso3":"CHL","iso2":"CL","longitude":"-71.54296875","latitude":"-35.6751480102539","exists":"1","jname":"チリ","jpnm":"チリ共和国","jpni":"チリ","logo":"cl","country":"1","kata":"チリ","akas":"タ","lcr":"#BBC0BB","ename":"Chile","alph":"C","region":"Americas","region_ja":"アメリカ"},"CN":{"id":"156","name":"China","iso3":"CHN","iso2":"CN","longitude":"104.19539642334","latitude":"35.8616600036621","exists":"1","jname":"中華人民共和国","jpnm":"中華人民共和国","jpni":"中華人民共和国","logo":"cn","country":"1","kata":"チュウカジンミンキョウワコク","akas":"タ","lcr":"#D64A80","ename":"China","alph":"C","region":"Asia","region_ja":"アジア"},"TW":{"id":"158","name":"China, Taiwan Province of China","iso3":"TWN","iso2":"TW","longitude":"120.960517883301","latitude":"23.6978092193604","exists":"1","jname":"","jpnm":"タイワン(台湾)","jpni":"タイワン(台湾)","logo":"tw","country":"1","kata":"タイワン(台湾)","akas":"タ","lcr":"#A5A1BC","ename":"Taiwan","alph":"T","region":"Asia","region_ja":"アジア"},"CO":{"id":"170","name":"Colombia","iso3":"COL","iso2":"CO","longitude":"-74.2973327636719","latitude":"4.57086801528931","exists":"1","jname":"コロンビア","jpnm":"コロンビア共和国","jpni":"コロンビア","logo":"co","country":"1","kata":"コロンビア","akas":"カ","lcr":"#86BCEC","ename":"Colombia","alph":"C","region":"Americas","region_ja":"アメリカ"},"KM":{"id":"174","name":"Comoros","iso3":"COM","iso2":"KM","longitude":"43.3333015441895","latitude":"-11.6455001831055","exists":"1","jname":"コモロ","jpnm":"コモロ連合","jpni":"コモロ","logo":"km","country":"1","kata":"コモロ","akas":"カ","lcr":"#AC4438","ename":"Comoros","alph":"C","region":"Africa","region_ja":"アフリカ"},"YT":{"id":"175","name":"Mayotte","iso3":"MYT","iso2":"YT","longitude":"45.1662445068359","latitude":"-12.8275003433228","exists":"1","jname":"","jpnm":"マイヨット島","jpni":"マイヨット島","logo":"yt","country":"1","kata":"マイヨット島","akas":"マ","lcr":"#8BDB6E","ename":"Mayotte","alph":"M","region":"Africa","region_ja":"アフリカ"},"CG":{"id":"178","name":"Congo","iso3":"COG","iso2":"CG","longitude":"15.8276586532593","latitude":"-0.228020995855331","exists":"1","jname":"コンゴ共和国","jpnm":"コンゴ共和国","jpni":"コンゴ共和国","logo":"cg","country":"1","kata":"コンゴ共和国","akas":"カ","lcr":"#88F79C","ename":"Congo","alph":"C","region":"Africa","region_ja":"アフリカ"},"CD":{"id":"180","name":"Dem. Rep. of the Congo","iso3":"COD","iso2":"CD","longitude":"21.7586631774902","latitude":"-4.03833293914795","exists":"1","jname":"コンゴ民主共和国","jpnm":"コンゴ民主共和国","jpni":"コンゴ民主共和国","logo":"cd","country":"1","kata":"コンゴ民主共和国","akas":"カ","lcr":"#BB5EAA","ename":"Dem. Rep. of the Congo","alph":"D","region":"Africa","region_ja":"アフリカ"},"CK":{"id":"184","name":"Cook Islands","iso3":"COK","iso2":"CK","longitude":"-159.77766418457","latitude":"-21.2367362976074","exists":"1","jname":"","jpnm":"クック諸島","jpni":"クック諸島","logo":"ck","country":"1","kata":"クック諸島","akas":"カ","lcr":"#738E8A","ename":"Cook Islands","alph":"C","region":"Oceania","region_ja":"オセアニア"},"CR":{"id":"188","name":"Costa Rica","iso3":"CRI","iso2":"CR","longitude":"-83.7534255981445","latitude":"9.74891662597656","exists":"1","jname":"コスタリカ","jpnm":"コスタリカ共和国","jpni":"コスタリカ","logo":"cr","country":"1","kata":"コスタリカ","akas":"カ","lcr":"#F5AE9F","ename":"Costa Rica","alph":"C","region":"Americas","region_ja":"アメリカ"},"HR":{"id":"191","name":"Croatia","iso3":"HRV","iso2":"HR","longitude":"15.1999998092651","latitude":"45.0999984741211","exists":"1","jname":"クロアチア","jpnm":"クロアチア共和国","jpni":"クロアチア","logo":"hr","country":"1","kata":"クロアチア","akas":"カ","lcr":"#3BB579","ename":"Croatia","alph":"C","region":"Europe","region_ja":"ヨーロッパ"},"CU":{"id":"192","name":"Cuba","iso3":"CUB","iso2":"CU","longitude":"-77.7811660766602","latitude":"21.5217571258545","exists":"1","jname":"キューバ","jpnm":"キューバ共和国","jpni":"キューバ","logo":"cu","country":"1","kata":"キューバ","akas":"カ","lcr":"#B1864C","ename":"Cuba","alph":"C","region":"Americas","region_ja":"アメリカ"},"CY":{"id":"196","name":"Cyprus","iso3":"CYP","iso2":"CY","longitude":"33.429859161377","latitude":"35.1264114379883","exists":"1","jname":"キプロス","jpnm":"キプロス共和国","jpni":"キプロス","logo":"cy","country":"1","kata":"キプロス","akas":"カ","lcr":"#F27B80","ename":"Cyprus","alph":"C","region":"Asia","region_ja":"アジア"},"CZ":{"id":"203","name":"Czechia","iso3":"CZE","iso2":"CZ","longitude":"15.4729623794556","latitude":"49.8174934387207","exists":"1","jname":"チェコ","jpnm":"チェコ共和国","jpni":"チェコ","logo":"cz","country":"1","kata":"チェコ","akas":"タ","lcr":"#4F259C","ename":"Czechia","alph":"C","region":"Europe","region_ja":"ヨーロッパ"},"BJ":{"id":"204","name":"Benin","iso3":"BEN","iso2":"BJ","longitude":"2.31583404541016","latitude":"9.30768966674805","exists":"1","jname":"ベナン","jpnm":"ベナン共和国","jpni":"ベナン","logo":"bj","country":"1","kata":"ベナン","akas":"ハ","lcr":"#E5AF37","ename":"Benin","alph":"B","region":"Africa","region_ja":"アフリカ"},"DK":{"id":"208","name":"Denmark","iso3":"DNK","iso2":"DK","longitude":"9.50178527832031","latitude":"56.2639198303223","exists":"1","jname":"デンマーク","jpnm":"デンマーク王国","jpni":"デンマーク","logo":"dk","country":"1","kata":"デンマーク","akas":"タ","lcr":"#8476B9","ename":"Denmark","alph":"D","region":"Europe","region_ja":"ヨーロッパ"},"DM":{"id":"212","name":"Dominica","iso3":"DMA","iso2":"DM","longitude":"-61.3709754943848","latitude":"15.4149990081787","exists":"1","jname":"ドミニカ国","jpnm":"ドミニカ国","jpni":"ドミニカ国","logo":"dm","country":"1","kata":"ドミニカ国","akas":"タ","lcr":"#3D3D87","ename":"Dominica","alph":"D","region":"Americas","region_ja":"アメリカ"},"DO":{"id":"214","name":"Dominican Republic","iso3":"DOM","iso2":"DO","longitude":"-70.1626510620117","latitude":"18.7356929779053","exists":"1","jname":"ドミニカ共和国","jpnm":"ドミニカ共和国","jpni":"ドミニカ共和国","logo":"do","country":"1","kata":"ドミニカ共和国","akas":"タ","lcr":"#92827C","ename":"Dominican Republic","alph":"D","region":"Americas","region_ja":"アメリカ"},"EC":{"id":"218","name":"Ecuador","iso3":"ECU","iso2":"EC","longitude":"-78.1834030151367","latitude":"-1.83123898506165","exists":"1","jname":"エクアドル","jpnm":"エクアドル共和国","jpni":"エクアドル","logo":"ec","country":"1","kata":"エクアドル","akas":"ア","lcr":"#E4DBD1","ename":"Ecuador","alph":"E","region":"Americas","region_ja":"アメリカ"},"SV":{"id":"222","name":"El Salvador","iso3":"SLV","iso2":"SV","longitude":"-88.8965301513672","latitude":"13.7941846847534","exists":"1","jname":"エルサルバドル","jpnm":"エルサルバドル共和国","jpni":"エルサルバドル","logo":"sv","country":"1","kata":"エルサルバドル","akas":"ア","lcr":"#B8AE7C","ename":"El Salvador","alph":"E","region":"Americas","region_ja":"アメリカ"},"GQ":{"id":"226","name":"Equatorial Guinea","iso3":"GNQ","iso2":"GQ","longitude":"10.267894744873","latitude":"1.65080094337463","exists":"1","jname":"赤道ギニア","jpnm":"赤道ギニア共和国","jpni":"赤道ギニア","logo":"gq","country":"1","kata":"セキドウギニア","akas":"サ","lcr":"#E8DE90","ename":"Equatorial Guinea","alph":"E","region":"Africa","region_ja":"アフリカ"},"ET":{"id":"231","name":"Ethiopia","iso3":"ETH","iso2":"ET","longitude":"40.489673614502","latitude":"9.14500045776367","exists":"1","jname":"エチオピア","jpnm":"エチオピア連邦民主共和国","jpni":"エチオピア","logo":"et","country":"1","kata":"エチオピア","akas":"ア","lcr":"#39B396","ename":"Ethiopia","alph":"E","region":"Africa","region_ja":"アフリカ"},"ER":{"id":"232","name":"Eritrea","iso3":"ERI","iso2":"ER","longitude":"39.7823333740234","latitude":"15.1793842315674","exists":"1","jname":"エリトリア","jpnm":"エリトリア国","jpni":"エリトリア","logo":"er","country":"1","kata":"エリトリア","akas":"ア","lcr":"#C9A27E","ename":"Eritrea","alph":"E","region":"Africa","region_ja":"アフリカ"},"EE":{"id":"233","name":"Estonia","iso3":"EST","iso2":"EE","longitude":"25.0136070251465","latitude":"58.595272064209","exists":"1","jname":"エストニア","jpnm":"エストニア共和国","jpni":"エストニア","logo":"ee","country":"1","kata":"エストニア","akas":"ア","lcr":"#F5755D","ename":"Estonia","alph":"E","region":"Europe","region_ja":"ヨーロッパ"},"FO":{"id":"234","name":"Faroe Islands","iso3":"FRO","iso2":"FO","longitude":"-6.91180610656738","latitude":"61.892635345459","exists":"1","jname":"フェロー諸島","jpnm":"フェロー諸島","jpni":"フェロー諸島","logo":"fo","country":"1","kata":"フェロー諸島","akas":"ハ","lcr":"#AFF492","ename":"Faroe Islands","alph":"F","region":"Europe","region_ja":"ヨーロッパ"},"FK":{"id":"238","name":"Falkland Islands (Malvinas)","iso3":"FLK","iso2":"FK","longitude":"-59.5236129760742","latitude":"-51.7962532043457","exists":"1","jname":"","jpnm":"フォークランド(マルビナス)諸島","jpni":"フォークランド(マルビナス)諸島","logo":"fk","country":"1","kata":"フォークランド(マルビナス)諸島","akas":"ハ","lcr":"#81AAE0","ename":"Falkland Islands (Malvinas)","alph":"F","region":"Americas","region_ja":"アメリカ"},"FJ":{"id":"242","name":"Fiji","iso3":"FJI","iso2":"FJ","longitude":"178.065032958984","latitude":"-17.7133712768555","exists":"1","jname":"フィジー","jpnm":"フィジー諸島共和国","jpni":"フィジー","logo":"fj","country":"1","kata":"フィジー","akas":"ハ","lcr":"#4D7095","ename":"Fiji","alph":"F","region":"Oceania","region_ja":"オセアニア"},"FI":{"id":"246","name":"Finland","iso3":"FIN","iso2":"FI","longitude":"25.7481517791748","latitude":"61.9241104125977","exists":"1","jname":"フィンランド","jpnm":"フィンランド共和国","jpni":"フィンランド","logo":"fi","country":"1","kata":"フィンランド","akas":"ハ","lcr":"#5DC8B0","ename":"Finland","alph":"F","region":"Europe","region_ja":"ヨーロッパ"},"FR":{"id":"250","name":"France","iso3":"FRA","iso2":"FR","longitude":"2.21374893188477","latitude":"46.2276382446289","exists":"1","jname":"フランス","jpnm":"フランス共和国","jpni":"フランス","logo":"fr","country":"1","kata":"フランス","akas":"ハ","lcr":"#ADD2CB","ename":"France","alph":"F","region":"Europe","region_ja":"ヨーロッパ"},"GF":{"id":"254","name":"French Guiana","iso3":"GUF","iso2":"GF","longitude":"-53.1257820129395","latitude":"3.93388891220093","exists":"1","jname":"","jpnm":"フランス領ギアナ","jpni":"フランス領ギアナ","logo":"gf","country":"1","kata":"フランス領ギアナ","akas":"ハ","lcr":"#BFAFDC","ename":"French Guiana","alph":"F","region":"Americas","region_ja":"アメリカ"},"PF":{"id":"258","name":"French Polynesia","iso3":"PYF","iso2":"PF","longitude":"-149.406845092773","latitude":"-17.6797428131104","exists":"1","jname":"フランス領ポリネシア","jpnm":"フランス領ポリネシア","jpni":"フランス領ポリネシア","logo":"pf","country":"1","kata":"フランス領ポリネシア","akas":"ハ","lcr":"#D5B37D","ename":"French Polynesia","alph":"F","region":"Oceania","region_ja":"オセアニア"},"DJ":{"id":"262","name":"Djibouti","iso3":"DJI","iso2":"DJ","longitude":"42.590274810791","latitude":"11.825138092041","exists":"1","jname":"ジブチ","jpnm":"ジブチ共和国","jpni":"ジブチ","logo":"dj","country":"1","kata":"ジブチ","akas":"サ","lcr":"#651172","ename":"Djibouti","alph":"D","region":"Africa","region_ja":"アフリカ"},"GA":{"id":"266","name":"Gabon","iso3":"GAB","iso2":"GA","longitude":"11.6094436645508","latitude":"-0.803689002990723","exists":"1","jname":"ガボン","jpnm":"ガボン共和国","jpni":"ガボン","logo":"ga","country":"1","kata":"ガボン","akas":"カ","lcr":"#268A24","ename":"Gabon","alph":"G","region":"Africa","region_ja":"アフリカ"},"GE":{"id":"268","name":"Georgia","iso3":"GEO","iso2":"GE","longitude":"43.3568916320801","latitude":"42.3154067993164","exists":"1","jname":"グルジア","jpnm":"ジョージア","jpni":"グルジア","logo":"ge","country":"1","kata":"グルジア","akas":"カ","lcr":"#C8A1C9","ename":"Georgia","alph":"G","region":"Asia","region_ja":"アジア"},"GM":{"id":"270","name":"Gambia","iso3":"GMB","iso2":"GM","longitude":"-15.3101387023926","latitude":"13.4431819915771","exists":"1","jname":"ガンビア","jpnm":"ガンビア共和国","jpni":"ガンビア","logo":"gm","country":"1","kata":"ガンビア","akas":"カ","lcr":"#ADC4DA","ename":"Gambia","alph":"G","region":"Africa","region_ja":"アフリカ"},"PS":{"id":"275","name":"State of Palestine","iso3":"PSE","iso2":"PS","longitude":"35.233154296875","latitude":"31.9521617889404","exists":"1","jname":"パレスチナ","jpnm":"パレスチナ占領区域","jpni":"パレスチナ","logo":"ps","country":"1","kata":"パレスチナ","akas":"ハ","lcr":"#D8DBF5","ename":"State of Palestine","alph":"S","region":"Asia","region_ja":"アジア"},"DE":{"id":"276","name":"Germany","iso3":"DEU","iso2":"DE","longitude":"10.4515256881714","latitude":"51.1656913757324","exists":"1","jname":"ドイツ","jpnm":"ドイツ連邦共和国","jpni":"ドイツ","logo":"de","country":"1","kata":"ドイツ","akas":"タ","lcr":"#E6A785","ename":"Germany","alph":"G","region":"Europe","region_ja":"ヨーロッパ"},"GH":{"id":"288","name":"Ghana","iso3":"GHA","iso2":"GH","longitude":"-1.02319395542145","latitude":"7.94652700424194","exists":"1","jname":"ガーナ","jpnm":"ガーナ共和国","jpni":"ガーナ","logo":"gh","country":"1","kata":"ガーナ","akas":"カ","lcr":"#E326F0","ename":"Ghana","alph":"G","region":"Africa","region_ja":"アフリカ"},"GI":{"id":"292","name":"Gibraltar","iso3":"GIB","iso2":"GI","longitude":"-5.35358476638794","latitude":"36.1407508850098","exists":"1","jname":"ジブラルタル","jpnm":"ジブラルタル","jpni":"ジブラルタル","logo":"gi","country":"1","kata":"ジブラルタル","akas":"サ","lcr":"#F267F4","ename":"Gibraltar","alph":"G","region":"Europe","region_ja":"ヨーロッパ"},"KI":{"id":"296","name":"Kiribati","iso3":"KIR","iso2":"KI","longitude":"-157.363021850586","latitude":"1.87088334560394","exists":"1","jname":"キリバス","jpnm":"キリバス共和国","jpni":"キリバス","logo":"ki","country":"1","kata":"キリバス","akas":"カ","lcr":"#96BF60","ename":"Kiribati","alph":"K","region":"Oceania","region_ja":"オセアニア"},"GR":{"id":"300","name":"Greece","iso3":"GRC","iso2":"GR","longitude":"21.824312210083","latitude":"39.0742073059082","exists":"1","jname":"ギリシャ","jpnm":"ギリシア共和国","jpni":"ギリシャ","logo":"gr","country":"1","kata":"ギリシャ","akas":"カ","lcr":"#71F570","ename":"Greece","alph":"G","region":"Europe","region_ja":"ヨーロッパ"},"GL":{"id":"304","name":"Greenland","iso3":"GRL","iso2":"GL","longitude":"-42.6043014526367","latitude":"71.7069396972656","exists":"1","jname":"グリーンランド","jpnm":"グリーンランド","jpni":"グリーンランド","logo":"gl","country":"1","kata":"グリーンランド","akas":"カ","lcr":"#F4CDA0","ename":"Greenland","alph":"G","region":"Americas","region_ja":"アメリカ"},"GD":{"id":"308","name":"Grenada","iso3":"GRD","iso2":"GD","longitude":"-61.68982","latitude":"12.09227","exists":"1","jname":"グレナダ","jpnm":"グレナダ","jpni":"グレナダ","logo":"gd","country":"1","kata":"グレナダ","akas":"カ","lcr":"#B6CBB1","ename":"Grenada","alph":"G","region":"Americas","region_ja":"アメリカ"},"GP":{"id":"312","name":"Guadeloupe","iso3":"GLP","iso2":"GP","longitude":"-61.66461","latitude":"16.17588","exists":"1","jname":"","jpnm":"グアドループ島","jpni":"グアドループ島","logo":"gp","country":"1","kata":"グアドループ島","akas":"カ","lcr":"#6E80CF","ename":"Guadeloupe","alph":"G","region":"Americas","region_ja":"アメリカ"},"GU":{"id":"316","name":"Guam","iso3":"GUM","iso2":"GU","longitude":"144.793731689453","latitude":"13.4443044662476","exists":"1","jname":"グアム","jpnm":"グアム","jpni":"グアム","logo":"gu","country":"1","kata":"グアム","akas":"カ","lcr":"#975857","ename":"Guam","alph":"G","region":"Oceania","region_ja":"オセアニア"},"GT":{"id":"320","name":"Guatemala","iso3":"GTM","iso2":"GT","longitude":"-90.2307586669922","latitude":"15.7834711074829","exists":"1","jname":"グアテマラ","jpnm":"グアテマラ共和国","jpni":"グアテマラ","logo":"gt","country":"1","kata":"グアテマラ","akas":"カ","lcr":"#CCFAF9","ename":"Guatemala","alph":"G","region":"Americas","region_ja":"アメリカ"},"GN":{"id":"324","name":"Guinea","iso3":"GIN","iso2":"GN","longitude":"-9.69664478302002","latitude":"9.94558715820312","exists":"1","jname":"ギニア","jpnm":"ギニア共和国","jpni":"ギニア","logo":"gn","country":"1","kata":"ギニア","akas":"カ","lcr":"#DF7E69","ename":"Guinea","alph":"G","region":"Africa","region_ja":"アフリカ"},"GY":{"id":"328","name":"Guyana","iso3":"GUY","iso2":"GY","longitude":"-58.9301795959473","latitude":"4.86041593551636","exists":"1","jname":"ガイアナ","jpnm":"ガイアナ協同共和国","jpni":"ガイアナ","logo":"gy","country":"1","kata":"ガイアナ","akas":"カ","lcr":"#BB6599","ename":"Guyana","alph":"G","region":"Americas","region_ja":"アメリカ"},"HT":{"id":"332","name":"Haiti","iso3":"HTI","iso2":"HT","longitude":"-72.2852172851562","latitude":"18.9711875915527","exists":"1","jname":"ハイチ","jpnm":"ハイチ共和国","jpni":"ハイチ","logo":"ht","country":"1","kata":"ハイチ","akas":"ハ","lcr":"#D7AEF9","ename":"Haiti","alph":"H","region":"Americas","region_ja":"アメリカ"},"VA":{"id":"336","name":"Holy See","iso3":"VAT","iso2":"VA","longitude":"12.4533891677856","latitude":"41.9029159545898","exists":"0","jname":"","jpnm":"バチカン市国","jpni":"バチカン市国","logo":"va","country":"0","kata":"バチカン市国","akas":"ハ","lcr":"#D28BE4","ename":"Holy See","alph":"H","region":"Europe","region_ja":"ヨーロッパ"},"HN":{"id":"340","name":"Honduras","iso3":"HND","iso2":"HN","longitude":"-86.2419052124023","latitude":"15.1999988555908","exists":"1","jname":"ホンジュラス","jpnm":"ホンジュラス共和国","jpni":"ホンジュラス","logo":"hn","country":"1","kata":"ホンジュラス","akas":"ハ","lcr":"#AAA189","ename":"Honduras","alph":"H","region":"Americas","region_ja":"アメリカ"},"HK":{"id":"344","name":"China, Hong Kong SAR","iso3":"HKG","iso2":"HK","longitude":"114.109497070312","latitude":"22.396427154541","exists":"1","jname":"香港","jpnm":"香港特別行政区(ホンコン)","jpni":"香港","logo":"hk","country":"1","kata":"ホンコン","akas":"ハ","lcr":"#54BC29","ename":"China, Hong Kong SAR","alph":"C","region":"Asia","region_ja":"アジア"},"HU":{"id":"348","name":"Hungary","iso3":"HUN","iso2":"HU","longitude":"19.503303527832","latitude":"47.1624946594238","exists":"1","jname":"ハンガリー","jpnm":"ハンガリー共和国","jpni":"ハンガリー","logo":"hu","country":"1","kata":"ハンガリー","akas":"ハ","lcr":"#F7ACD0","ename":"Hungary","alph":"H","region":"Europe","region_ja":"ヨーロッパ"},"IS":{"id":"352","name":"Iceland","iso3":"ISL","iso2":"IS","longitude":"-19.0208358764648","latitude":"64.9630508422852","exists":"1","jname":"アイスランド","jpnm":"アイスランド共和国","jpni":"アイスランド","logo":"is","country":"1","kata":"アイスランド","akas":"ア","lcr":"#59C6F4","ename":"Iceland","alph":"I","region":"Europe","region_ja":"ヨーロッパ"},"IN":{"id":"356","name":"India","iso3":"IND","iso2":"IN","longitude":"78.9628829956055","latitude":"20.5936832427979","exists":"1","jname":"インド","jpnm":"インド","jpni":"インド","logo":"in","country":"1","kata":"インド","akas":"ア","lcr":"#EA7D95","ename":"India","alph":"I","region":"Asia","region_ja":"アジア"},"ID":{"id":"360","name":"Indonesia","iso3":"IDN","iso2":"ID","longitude":"113.921325683594","latitude":"-0.789274990558624","exists":"1","jname":"インドネシア","jpnm":"インドネシア共和国","jpni":"インドネシア","logo":"id","country":"1","kata":"インドネシア","akas":"ア","lcr":"#E6F2DE","ename":"Indonesia","alph":"I","region":"Asia","region_ja":"アジア"},"IR":{"id":"364","name":"Iran (Islamic Republic of)","iso3":"IRN","iso2":"IR","longitude":"53.688045501709","latitude":"32.4279098510742","exists":"1","jname":"イラン","jpnm":"イラン・イスラム共和国","jpni":"イラン","logo":"ir","country":"1","kata":"イラン","akas":"ア","lcr":"#F329DA","ename":"Iran","alph":"I","region":"Asia","region_ja":"アジア"},"IQ":{"id":"368","name":"Iraq","iso3":"IRQ","iso2":"IQ","longitude":"43.6792907714844","latitude":"33.2231903076172","exists":"1","jname":"イラク","jpnm":"イラク共和国","jpni":"イラク","logo":"iq","country":"1","kata":"イラク","akas":"ア","lcr":"#B195EE","ename":"Iraq","alph":"I","region":"Asia","region_ja":"アジア"},"IE":{"id":"372","name":"Ireland","iso3":"IRL","iso2":"IE","longitude":"-8.24388980865479","latitude":"53.4129104614258","exists":"1","jname":"アイルランド","jpnm":"アイルランド","jpni":"アイルランド","logo":"ie","country":"1","kata":"アイルランド","akas":"ア","lcr":"#D02B27","ename":"Ireland","alph":"I","region":"Europe","region_ja":"ヨーロッパ"},"IL":{"id":"376","name":"Israel","iso3":"ISR","iso2":"IL","longitude":"34.8516120910645","latitude":"31.0460510253906","exists":"1","jname":"イスラエル","jpnm":"イスラエル国","jpni":"イスラエル","logo":"il","country":"1","kata":"イスラエル","akas":"ア","lcr":"#47EEA1","ename":"Israel","alph":"I","region":"Asia","region_ja":"アジア"},"IT":{"id":"380","name":"Italy","iso3":"ITA","iso2":"IT","longitude":"12.5673799514771","latitude":"41.871940612793","exists":"1","jname":"イタリア","jpnm":"イタリア共和国","jpni":"イタリア","logo":"it","country":"1","kata":"イタリア","akas":"ア","lcr":"#F96CBA","ename":"Italy","alph":"I","region":"Europe","region_ja":"ヨーロッパ"},"CI":{"id":"384","name":"Côte d'Ivoire","iso3":"CIV","iso2":"CI","longitude":"-5.54708003997803","latitude":"7.53998899459839","exists":"1","jname":"コートジボワール","jpnm":"コートジボアール共和国","jpni":"コートジボワール","logo":"ci","country":"1","kata":"コートジボワール","akas":"カ","lcr":"#7CF9D7","ename":"Côte d'Ivoire","alph":"C","region":"Africa","region_ja":"アフリカ"},"JM":{"id":"388","name":"Jamaica","iso3":"JAM","iso2":"JM","longitude":"-77.2975082397461","latitude":"18.1095809936523","exists":"1","jname":"ジャマイカ","jpnm":"ジャマイカ","jpni":"ジャマイカ","logo":"jm","country":"1","kata":"ジャマイカ","akas":"サ","lcr":"#A9C042","ename":"Jamaica","alph":"J","region":"Americas","region_ja":"アメリカ"},"JP":{"id":"392","name":"Japan","iso3":"JPN","iso2":"JP","longitude":"138.2529296875","latitude":"36.2048225402832","exists":"1","jname":"日本","jpnm":"日本国","jpni":"日本","logo":"jp","country":"1","kata":"ニホン","akas":"ナ","lcr":"#EF3DC1","ename":"Japan","alph":"J","region":"Asia","region_ja":"アジア"},"KZ":{"id":"398","name":"Kazakhstan","iso3":"KAZ","iso2":"KZ","longitude":"66.9236831665039","latitude":"48.0195732116699","exists":"1","jname":"カザフスタン","jpnm":"カザフスタン共和国","jpni":"カザフスタン","logo":"kz","country":"1","kata":"カザフスタン","akas":"カ","lcr":"#E0978A","ename":"Kazakhstan","alph":"K","region":"Asia","region_ja":"アジア"},"JO":{"id":"400","name":"Jordan","iso3":"JOR","iso2":"JO","longitude":"36.2384147644043","latitude":"30.5851631164551","exists":"1","jname":"ヨルダン","jpnm":"ヨルダン・ハシミテ王国","jpni":"ヨルダン","logo":"jo","country":"1","kata":"ヨルダン","akas":"ヤ","lcr":"#EE91A3","ename":"Jordan","alph":"J","region":"Asia","region_ja":"アジア"},"KE":{"id":"404","name":"Kenya","iso3":"KEN","iso2":"KE","longitude":"37.906192779541","latitude":"-0.0235590003430843","exists":"1","jname":"ケニア","jpnm":"ケニア共和国","jpni":"ケニア","logo":"ke","country":"1","kata":"ケニア","akas":"カ","lcr":"#5891EC","ename":"Kenya","alph":"K","region":"Africa","region_ja":"アフリカ"},"KP":{"id":"408","name":"Dem. People's Rep. of Korea","iso3":"PRK","iso2":"KP","longitude":"127.510093688965","latitude":"40.3398513793945","exists":"1","jname":"朝鮮民主主義人民共和国","jpnm":"(北朝鮮=朝鮮民主主義人民共和国)","jpni":"朝鮮民主主義人民共和国","logo":"kp","country":"1","kata":"チョウセンミンシュシュギジンミンキョウワコク","akas":"タ","lcr":"#A0D65A","ename":"Dem. People's Rep. of Korea","alph":"D","region":"Asia","region_ja":"アジア"},"KR":{"id":"410","name":"Republic of Korea","iso3":"KOR","iso2":"KR","longitude":"127.76692199707","latitude":"35.9077568054199","exists":"1","jname":"大韓民国","jpnm":"大韓民国","jpni":"大韓民国","logo":"kr","country":"1","kata":"ダイカンミンコク","akas":"タ","lcr":"#C1B2B9","ename":"Korea","alph":"K","region":"Asia","region_ja":"アジア"},"XK":{"id":"412","name":"Kosovo (under UNSC res. 1244)","iso3":"XKX","iso2":"XK","longitude":"","latitude":"","exists":"1","jname":"","jpnm":"","jpni":"コソボ共和国","logo":"xk","country":"1","kata":"コソボ共和国","akas":"カ","lcr":"#D5D4DF","ename":"Kosovo (under UNSC res. 1244)","alph":"K","region":"Asia","region_ja":"アジア"},"KW":{"id":"414","name":"Kuwait","iso3":"KWT","iso2":"KW","longitude":"47.4817657470703","latitude":"29.3116607666016","exists":"1","jname":"クウェート","jpnm":"クウェート国","jpni":"クウェート","logo":"kw","country":"1","kata":"クウェート","akas":"カ","lcr":"#F734AB","ename":"Kuwait","alph":"K","region":"Asia","region_ja":"アジア"},"KG":{"id":"417","name":"Kyrgyzstan","iso3":"KGZ","iso2":"KG","longitude":"74.7660980224609","latitude":"41.2043800354004","exists":"1","jname":"キルギス","jpnm":"キルギス共和国","jpni":"キルギス","logo":"kg","country":"1","kata":"キルギス","akas":"カ","lcr":"#D0C44A","ename":"Kyrgyzstan","alph":"K","region":"Asia","region_ja":"アジア"},"LA":{"id":"418","name":"Lao People's Dem. Republic","iso3":"LAO","iso2":"LA","longitude":"102.495498657227","latitude":"19.8562698364258","exists":"1","jname":"ラオス人民民主共和国","jpnm":"ラオス人民民主共和国","jpni":"ラオス人民民主共和国","logo":"la","country":"1","kata":"ラオス人民民主共和国","akas":"ラ","lcr":"#98F4F0","ename":"Lao People's Dem. Republic","alph":"L","region":"Asia","region_ja":"アジア"},"LB":{"id":"422","name":"Lebanon","iso3":"LBN","iso2":"LB","longitude":"35.8622856140137","latitude":"33.8547210693359","exists":"1","jname":"レバノン","jpnm":"レバノン共和国","jpni":"レバノン","logo":"lb","country":"1","kata":"レバノン","akas":"ラ","lcr":"#CAD1BF","ename":"Lebanon","alph":"L","region":"Asia","region_ja":"アジア"},"LS":{"id":"426","name":"Lesotho","iso3":"LSO","iso2":"LS","longitude":"28.2336082458496","latitude":"-29.6099872589111","exists":"1","jname":"レソト","jpnm":"レソト王国","jpni":"レソト","logo":"ls","country":"1","kata":"レソト","akas":"ラ","lcr":"#7A5935","ename":"Lesotho","alph":"L","region":"Africa","region_ja":"アフリカ"},"LV":{"id":"428","name":"Latvia","iso3":"LVA","iso2":"LV","longitude":"24.6031894683838","latitude":"56.8796348571777","exists":"1","jname":"ラトビア","jpnm":"ラトビア共和国","jpni":"ラトビア","logo":"lv","country":"1","kata":"ラトビア","akas":"ラ","lcr":"#6A536C","ename":"Latvia","alph":"L","region":"Europe","region_ja":"ヨーロッパ"},"LR":{"id":"430","name":"Liberia","iso3":"LBR","iso2":"LR","longitude":"-9.42949867248535","latitude":"6.42805480957031","exists":"1","jname":"リベリア","jpnm":"リベリア共和国","jpni":"リベリア","logo":"lr","country":"1","kata":"リベリア","akas":"ラ","lcr":"#C2ED9D","ename":"Liberia","alph":"L","region":"Africa","region_ja":"アフリカ"},"LY":{"id":"434","name":"Libya","iso3":"LBY","iso2":"LY","longitude":"17.2283306121826","latitude":"26.3351001739502","exists":"1","jname":"リビア","jpnm":"社会主義人民リビア・アラブ国","jpni":"リビア","logo":"ly","country":"1","kata":"リビア","akas":"ラ","lcr":"#E2CFB8","ename":"Libya","alph":"L","region":"Africa","region_ja":"アフリカ"},"LI":{"id":"438","name":"Liechtenstein","iso3":"LIE","iso2":"LI","longitude":"9.5553731918335","latitude":"47.1660003662109","exists":"1","jname":"リヒテンシュタイン","jpnm":"リヒテンシュタイン公国","jpni":"リヒテンシュタイン","logo":"li","country":"1","kata":"リヒテンシュタイン","akas":"ラ","lcr":"#F08DEA","ename":"Liechtenstein","alph":"L","region":"Europe","region_ja":"ヨーロッパ"},"LT":{"id":"440","name":"Lithuania","iso3":"LTU","iso2":"LT","longitude":"23.881275177002","latitude":"55.1694374084473","exists":"1","jname":"リトアニア","jpnm":"リトアニア共和国","jpni":"リトアニア","logo":"lt","country":"1","kata":"リトアニア","akas":"ラ","lcr":"#D6D333","ename":"Lithuania","alph":"L","region":"Europe","region_ja":"ヨーロッパ"},"LU":{"id":"442","name":"Luxembourg","iso3":"LUX","iso2":"LU","longitude":"6.12958288192749","latitude":"49.8152732849121","exists":"1","jname":"ルクセンブルク","jpnm":"ルクセンブルク大公国","jpni":"ルクセンブルク","logo":"lu","country":"1","kata":"ルクセンブルク","akas":"ラ","lcr":"#FCE28A","ename":"Luxembourg","alph":"L","region":"Europe","region_ja":"ヨーロッパ"},"MO":{"id":"446","name":"China, Macao SAR","iso3":"MAC","iso2":"MO","longitude":"113.543876647949","latitude":"22.1987457275391","exists":"1","jname":"マカオ","jpnm":"マカオ(澳門)","jpni":"マカオ","logo":"mo","country":"1","kata":"マカオ","akas":"マ","lcr":"#82D4EC","ename":"China, Macao SAR","alph":"C","region":"Asia","region_ja":"アジア"},"MG":{"id":"450","name":"Madagascar","iso3":"MDG","iso2":"MG","longitude":"46.8691062927246","latitude":"-18.7669467926025","exists":"1","jname":"マダガスカル","jpnm":"マダガスカル共和国","jpni":"マダガスカル","logo":"mg","country":"1","kata":"マダガスカル","akas":"マ","lcr":"#75BE50","ename":"Madagascar","alph":"M","region":"Africa","region_ja":"アフリカ"},"MW":{"id":"454","name":"Malawi","iso3":"MWI","iso2":"MW","longitude":"34.3015251159668","latitude":"-13.2543077468872","exists":"1","jname":"マラウイ","jpnm":"マラウイ共和国","jpni":"マラウイ","logo":"mw","country":"1","kata":"マラウイ","akas":"マ","lcr":"#E0559F","ename":"Malawi","alph":"M","region":"Africa","region_ja":"アフリカ"},"MY":{"id":"458","name":"Malaysia","iso3":"MYS","iso2":"MY","longitude":"101.975769042969","latitude":"4.21048402786255","exists":"1","jname":"マレーシア","jpnm":"マレーシア","jpni":"マレーシア","logo":"my","country":"1","kata":"マレーシア","akas":"マ","lcr":"#80D2D8","ename":"Malaysia","alph":"M","region":"Asia","region_ja":"アジア"},"MV":{"id":"462","name":"Maldives","iso3":"MDV","iso2":"MV","longitude":"73.5361099243164","latitude":"1.97724688053131","exists":"1","jname":"モルディブ","jpnm":"モルディヴ共和国","jpni":"モルディブ","logo":"mv","country":"1","kata":"モルディブ","akas":"マ","lcr":"#DA90BA","ename":"Maldives","alph":"M","region":"Asia","region_ja":"アジア"},"ML":{"id":"466","name":"Mali","iso3":"MLI","iso2":"ML","longitude":"-3.99616599082947","latitude":"17.5706920623779","exists":"1","jname":"マリ共和国","jpnm":"マリ共和国","jpni":"マリ共和国","logo":"ml","country":"1","kata":"マリ共和国","akas":"マ","lcr":"#E9366A","ename":"Mali","alph":"M","region":"Africa","region_ja":"アフリカ"},"MT":{"id":"470","name":"Malta","iso3":"MLT","iso2":"MT","longitude":"14.375415802002","latitude":"35.9374961853027","exists":"1","jname":"マルタ","jpnm":"マルタ共和国","jpni":"マルタ","logo":"mt","country":"1","kata":"マルタ","akas":"マ","lcr":"#92D9BC","ename":"Malta","alph":"M","region":"Europe","region_ja":"ヨーロッパ"},"MQ":{"id":"474","name":"Martinique","iso3":"MTQ","iso2":"MQ","longitude":"-61.02442","latitude":"14.63115","exists":"1","jname":"","jpnm":"マルチニーク島","jpni":"マルチニーク島","logo":"mq","country":"1","kata":"マルチニーク島","akas":"マ","lcr":"#8FBDC9","ename":"Martinique","alph":"M","region":"Americas","region_ja":"アメリカ"},"MR":{"id":"478","name":"Mauritania","iso3":"MRT","iso2":"MR","longitude":"-10.9408349990845","latitude":"21.0078907012939","exists":"1","jname":"モーリタニア","jpnm":"モーリタニア・イスラム共和国","jpni":"モーリタニア","logo":"mr","country":"1","kata":"モーリタニア","akas":"マ","lcr":"#F1BAB3","ename":"Mauritania","alph":"M","region":"Africa","region_ja":"アフリカ"},"MU":{"id":"480","name":"Mauritius","iso3":"MUS","iso2":"MU","longitude":"57.5521507263184","latitude":"-20.3484039306641","exists":"1","jname":"モーリシャス","jpnm":"モーリシャス共和国","jpni":"モーリシャス","logo":"mu","country":"1","kata":"モーリシャス","akas":"マ","lcr":"#E4F5F9","ename":"Mauritius","alph":"M","region":"Africa","region_ja":"アフリカ"},"MX":{"id":"484","name":"Mexico","iso3":"MEX","iso2":"MX","longitude":"-102.552787780762","latitude":"23.63450050354","exists":"1","jname":"メキシコ","jpnm":"メキシコ合衆国","jpni":"メキシコ","logo":"mx","country":"1","kata":"メキシコ","akas":"マ","lcr":"#37F0C4","ename":"Mexico","alph":"M","region":"Americas","region_ja":"アメリカ"},"MC":{"id":"492","name":"Monaco","iso3":"MCO","iso2":"MC","longitude":"7.42461585998535","latitude":"43.7384185791016","exists":"1","jname":"モナコ","jpnm":"モナコ公国","jpni":"モナコ","logo":"mc","country":"1","kata":"モナコ","akas":"マ","lcr":"#96ADB2","ename":"Monaco","alph":"M","region":"Europe","region_ja":"ヨーロッパ"},"MN":{"id":"496","name":"Mongolia","iso3":"MNG","iso2":"MN","longitude":"103.846656799316","latitude":"46.8624954223633","exists":"1","jname":"モンゴル","jpnm":"モンゴル国","jpni":"モンゴル","logo":"mn","country":"1","kata":"モンゴル","akas":"マ","lcr":"#F9D0CC","ename":"Mongolia","alph":"M","region":"Asia","region_ja":"アジア"},"MD":{"id":"498","name":"Republic of Moldova","iso3":"MDA","iso2":"MD","longitude":"28.3698844909668","latitude":"47.4116325378418","exists":"1","jname":"モルドバ共和国","jpnm":"モルドバ共和国","jpni":"モルドバ共和国","logo":"md","country":"1","kata":"モルドバ共和国","akas":"マ","lcr":"#F4DCED","ename":"Moldova","alph":"M","region":"Europe","region_ja":"ヨーロッパ"},"ME":{"id":"499","name":"Montenegro","iso3":"MNE","iso2":"ME","longitude":"19.3743896484375","latitude":"42.7086791992188","exists":"1","jname":"モンテネグロ","jpnm":"モンテネグロ","jpni":"モンテネグロ","logo":"me","country":"1","kata":"モンテネグロ","akas":"マ","lcr":"#9C9BD6","ename":"Montenegro","alph":"M","region":"Europe","region_ja":"ヨーロッパ"},"MS":{"id":"500","name":"Montserrat","iso3":"MSR","iso2":"MS","longitude":"-62.1873664855957","latitude":"16.7424983978271","exists":"1","jname":"","jpnm":"モンセラット","jpni":"モンセラット","logo":"ms","country":"1","kata":"モンセラット","akas":"マ","lcr":"#AAB9EE","ename":"Montserrat","alph":"M","region":"Americas","region_ja":"アメリカ"},"MA":{"id":"504","name":"Morocco","iso3":"MAR","iso2":"MA","longitude":"-7.09261989593506","latitude":"31.7917022705078","exists":"1","jname":"モロッコ","jpnm":"モロッコ王国","jpni":"モロッコ","logo":"ma","country":"1","kata":"モロッコ","akas":"マ","lcr":"#F8E9C0","ename":"Morocco","alph":"M","region":"Africa","region_ja":"アフリカ"},"MZ":{"id":"508","name":"Mozambique","iso3":"MOZ","iso2":"MZ","longitude":"35.5295639038086","latitude":"-18.6656951904297","exists":"1","jname":"モザンビーク","jpnm":"モザンビーク共和国","jpni":"モザンビーク","logo":"mz","country":"1","kata":"モザンビーク","akas":"マ","lcr":"#C4ABE9","ename":"Mozambique","alph":"M","region":"Africa","region_ja":"アフリカ"},"OM":{"id":"512","name":"Oman","iso3":"OMN","iso2":"OM","longitude":"55.9232559204102","latitude":"21.5125827789307","exists":"1","jname":"オマーン","jpnm":"オマーン国","jpni":"オマーン","logo":"om","country":"1","kata":"オマーン","akas":"ア","lcr":"#E4C3F2","ename":"Oman","alph":"O","region":"Asia","region_ja":"アジア"},"NA":{"id":"516","name":"Namibia","iso3":"NAM","iso2":"NA","longitude":"18.4904098510742","latitude":"-22.9576396942139","exists":"1","jname":"ナミビア","jpnm":"ナミビア共和国","jpni":"ナミビア","logo":"na","country":"1","kata":"ナミビア","akas":"ナ","lcr":"#CDE9E1","ename":"Namibia","alph":"N","region":"Africa","region_ja":"アフリカ"},"NR":{"id":"520","name":"Nauru","iso3":"NRU","iso2":"NR","longitude":"166.931503295898","latitude":"-0.52277797460556","exists":"1","jname":"ナウル","jpnm":"ナウル共和国","jpni":"ナウル","logo":"nr","country":"1","kata":"ナウル","akas":"ナ","lcr":"#4FB6F4","ename":"Nauru","alph":"N","region":"Oceania","region_ja":"オセアニア"},"NP":{"id":"524","name":"Nepal","iso3":"NPL","iso2":"NP","longitude":"84.1240081787109","latitude":"28.3948574066162","exists":"1","jname":"ネパール","jpnm":"ネパール連邦民主共和国","jpni":"ネパール","logo":"np","country":"1","kata":"ネパール","akas":"ナ","lcr":"#B57ED0","ename":"Nepal","alph":"N","region":"Asia","region_ja":"アジア"},"NL":{"id":"528","name":"Netherlands","iso3":"NLD","iso2":"NL","longitude":"5.29126596450806","latitude":"52.1326332092285","exists":"1","jname":"オランダ","jpnm":"オランダ王国","jpni":"オランダ","logo":"nl","country":"1","kata":"オランダ","akas":"ア","lcr":"#4E8DC7","ename":"Netherlands","alph":"N","region":"Europe","region_ja":"ヨーロッパ"},"CW":{"id":"531","name":"Curaçao","iso3":"CUW","iso2":"CW","longitude":"-68.9900207519531","latitude":"12.1695699691772","exists":"1","jname":"キュラソー島","jpnm":"","jpni":"キュラソー島","logo":"cw","country":"1","kata":"キュラソー島","akas":"カ","lcr":"#F0DF5C","ename":"Curaçao","alph":"C","region":"Americas","region_ja":"アメリカ"},"AW":{"id":"533","name":"Aruba","iso3":"ABW","iso2":"AW","longitude":"-69.9683380126953","latitude":"12.5211095809937","exists":"1","jname":"アルバ","jpnm":"アルバ","jpni":"アルバ","logo":"aw","country":"1","kata":"アルバ","akas":"ア","lcr":"#56FB94","ename":"Aruba","alph":"A","region":"Americas","region_ja":"アメリカ"},"SX":{"id":"534","name":"Sint Maarten (Dutch part)","iso3":"SXM","iso2":"SX","longitude":"-63.0548286437988","latitude":"18.04248046875","exists":"1","jname":"シント・マールテン","jpnm":"","jpni":"シント・マールテン","logo":"sx","country":"1","kata":"シント・マールテン","akas":"サ","lcr":"#7CC195","ename":"Sint Maarten (Dutch part)","alph":"S","region":"Americas","region_ja":"アメリカ"},"BQ":{"id":"535","name":"Bonaire, Sint Eustatius and Saba","iso3":"BES","iso2":"BQ","longitude":"-68.2385330200195","latitude":"12.1783609390259","exists":"1","jname":"","jpnm":"英領南極地域","jpni":"英領南極地域","logo":"bq","country":"1","kata":"エイリョウナンキョクチイキ","akas":"ア","lcr":"#F5EE88","ename":"Bonaire, Sint Eustatius and Saba","alph":"B","region":"Americas","region_ja":"アメリカ"},"NC":{"id":"540","name":"New Caledonia","iso3":"NCL","iso2":"NC","longitude":"165.618041992188","latitude":"-20.9043045043945","exists":"1","jname":"ニューカレドニア","jpnm":"ニューカレドニア","jpni":"ニューカレドニア","logo":"nc","country":"1","kata":"ニューカレドニア","akas":"ナ","lcr":"#E4F24F","ename":"New Caledonia","alph":"N","region":"Oceania","region_ja":"オセアニア"},"VU":{"id":"548","name":"Vanuatu","iso3":"VUT","iso2":"VU","longitude":"166.95915222168","latitude":"-15.3767061233521","exists":"1","jname":"バヌアツ","jpnm":"バヌアツ共和国","jpni":"バヌアツ","logo":"vu","country":"1","kata":"バヌアツ","akas":"ハ","lcr":"#98F455","ename":"Vanuatu","alph":"V","region":"Oceania","region_ja":"オセアニア"},"NZ":{"id":"554","name":"New Zealand","iso3":"NZL","iso2":"NZ","longitude":"174.885971069336","latitude":"-40.9005584716797","exists":"1","jname":"ニュージーランド","jpnm":"ニュージーランド","jpni":"ニュージーランド","logo":"nz","country":"1","kata":"ニュージーランド","akas":"ナ","lcr":"#AC7CB5","ename":"New Zealand","alph":"N","region":"Oceania","region_ja":"オセアニア"},"NI":{"id":"558","name":"Nicaragua","iso3":"NIC","iso2":"NI","longitude":"-85.2072296142578","latitude":"12.8654155731201","exists":"1","jname":"ニカラグア","jpnm":"ニカラグア共和国","jpni":"ニカラグア","logo":"ni","country":"1","kata":"ニカラグア","akas":"ナ","lcr":"#46F0E6","ename":"Nicaragua","alph":"N","region":"Americas","region_ja":"アメリカ"},"NE":{"id":"562","name":"Niger","iso3":"NER","iso2":"NE","longitude":"8.08166599273682","latitude":"17.6077880859375","exists":"1","jname":"ニジェール","jpnm":"ニジェール共和国","jpni":"ニジェール","logo":"ne","country":"1","kata":"ニジェール","akas":"ナ","lcr":"#C6F0C8","ename":"Niger","alph":"N","region":"Africa","region_ja":"アフリカ"},"NG":{"id":"566","name":"Nigeria","iso3":"NGA","iso2":"NG","longitude":"8.67527675628662","latitude":"9.08199882507324","exists":"1","jname":"ナイジェリア","jpnm":"ナイジェリア連邦共和国","jpni":"ナイジェリア","logo":"ng","country":"1","kata":"ナイジェリア","akas":"ナ","lcr":"#9CF77E","ename":"Nigeria","alph":"N","region":"Africa","region_ja":"アフリカ"},"NU":{"id":"570","name":"Niue","iso3":"NIU","iso2":"NU","longitude":"-169.867233276367","latitude":"-19.0544452667236","exists":"1","jname":"","jpnm":"ニウエ","jpni":"ニウエ","logo":"nu","country":"1","kata":"ニウエ","akas":"ナ","lcr":"#D9F8BF","ename":"Niue","alph":"N","region":"Oceania","region_ja":"オセアニア"},"NO":{"id":"578","name":"Norway","iso3":"NOR","iso2":"NO","longitude":"8.46894645690918","latitude":"60.4720230102539","exists":"1","jname":"ノルウェー","jpnm":"ノルウェー王国","jpni":"ノルウェー","logo":"no","country":"1","kata":"ノルウェー","akas":"ナ","lcr":"#F8EEDF","ename":"Norway","alph":"N","region":"Europe","region_ja":"ヨーロッパ"},"MP":{"id":"580","name":"Northern Mariana Islands","iso3":"MNP","iso2":"MP","longitude":"145.673904418945","latitude":"15.097900390625","exists":"1","jname":"北マリアナ諸島","jpnm":"北マリアナ諸島","jpni":"北マリアナ諸島","logo":"mp","country":"1","kata":"キタマリアナショトウ","akas":"カ","lcr":"#8B93BE","ename":"Northern Mariana Islands","alph":"N","region":"Oceania","region_ja":"オセアニア"},"FM":{"id":"583","name":"Micronesia (Fed. States of)","iso3":"FSM","iso2":"FM","longitude":"158.215072631836","latitude":"6.88748121261597","exists":"1","jname":"ミクロネシア連邦","jpnm":"ミクロネシア連邦","jpni":"ミクロネシア連邦","logo":"fm","country":"1","kata":"ミクロネシア連邦","akas":"マ","lcr":"#B5C8F2","ename":"Micronesia","alph":"M","region":"Oceania","region_ja":"オセアニア"},"MH":{"id":"584","name":"Marshall Islands","iso3":"MHL","iso2":"MH","longitude":"171.989379882812","latitude":"6.06830167770386","exists":"1","jname":"マーシャル諸島","jpnm":"マーシャル諸島共和国","jpni":"マーシャル諸島","logo":"mh","country":"1","kata":"マーシャル諸島","akas":"マ","lcr":"#ACF6D8","ename":"Marshall Islands","alph":"M","region":"Oceania","region_ja":"オセアニア"},"PW":{"id":"585","name":"Palau","iso3":"PLW","iso2":"PW","longitude":"134.58251953125","latitude":"7.51497983932495","exists":"1","jname":"パラオ","jpnm":"パラオ共和国","jpni":"パラオ","logo":"pw","country":"1","kata":"パラオ","akas":"ハ","lcr":"#F4CD63","ename":"Palau","alph":"P","region":"Oceania","region_ja":"オセアニア"},"PK":{"id":"586","name":"Pakistan","iso3":"PAK","iso2":"PK","longitude":"69.3451156616211","latitude":"30.3753204345703","exists":"1","jname":"パキスタン","jpnm":"パキスタン・イスラム共和国","jpni":"パキスタン","logo":"pk","country":"1","kata":"パキスタン","akas":"ハ","lcr":"#ACFDAC","ename":"Pakistan","alph":"P","region":"Asia","region_ja":"アジア"},"PA":{"id":"591","name":"Panama","iso3":"PAN","iso2":"PA","longitude":"-80.7821273803711","latitude":"8.5379810333252","exists":"1","jname":"パナマ","jpnm":"パナマ共和国","jpni":"パナマ","logo":"pa","country":"1","kata":"パナマ","akas":"ハ","lcr":"#778968","ename":"Panama","alph":"P","region":"Americas","region_ja":"アメリカ"},"PG":{"id":"598","name":"Papua New Guinea","iso3":"PNG","iso2":"PG","longitude":"143.955551147461","latitude":"-6.31499290466309","exists":"1","jname":"パプアニューギニア","jpnm":"パプアニューギニア","jpni":"パプアニューギニア","logo":"pg","country":"1","kata":"パプアニューギニア","akas":"ハ","lcr":"#60F04A","ename":"Papua New Guinea","alph":"P","region":"Oceania","region_ja":"オセアニア"},"PY":{"id":"600","name":"Paraguay","iso3":"PRY","iso2":"PY","longitude":"-58.4438323974609","latitude":"-23.4425029754639","exists":"1","jname":"パラグアイ","jpnm":"パラグアイ共和国","jpni":"パラグアイ","logo":"py","country":"1","kata":"パラグアイ","akas":"ハ","lcr":"#E6CF97","ename":"Paraguay","alph":"P","region":"Americas","region_ja":"アメリカ"},"PE":{"id":"604","name":"Peru","iso3":"PER","iso2":"PE","longitude":"-75.0151519775391","latitude":"-9.18996715545654","exists":"1","jname":"ペルー","jpnm":"ペルー共和国","jpni":"ペルー","logo":"pe","country":"1","kata":"ペルー","akas":"ハ","lcr":"#F477A7","ename":"Peru","alph":"P","region":"Americas","region_ja":"アメリカ"},"PH":{"id":"608","name":"Philippines","iso3":"PHL","iso2":"PH","longitude":"121.774017333984","latitude":"12.8797206878662","exists":"1","jname":"フィリピン","jpnm":"フィリピン共和国","jpni":"フィリピン","logo":"ph","country":"1","kata":"フィリピン","akas":"ハ","lcr":"#BDAA5C","ename":"Philippines","alph":"P","region":"Asia","region_ja":"アジア"},"PL":{"id":"616","name":"Poland","iso3":"POL","iso2":"PL","longitude":"19.1451358795166","latitude":"51.9194374084473","exists":"1","jname":"ポーランド","jpnm":"ポーランド共和国","jpni":"ポーランド","logo":"pl","country":"1","kata":"ポーランド","akas":"ハ","lcr":"#D62894","ename":"Poland","alph":"P","region":"Europe","region_ja":"ヨーロッパ"},"PT":{"id":"620","name":"Portugal","iso3":"PRT","iso2":"PT","longitude":"-8.22445392608643","latitude":"39.3998718261719","exists":"1","jname":"ポルトガル","jpnm":"ポルトガル共和国","jpni":"ポルトガル","logo":"pt","country":"1","kata":"ポルトガル","akas":"ハ","lcr":"#B4A5F5","ename":"Portugal","alph":"P","region":"Europe","region_ja":"ヨーロッパ"},"GW":{"id":"624","name":"Guinea-Bissau","iso3":"GNB","iso2":"GW","longitude":"-15.1804132461548","latitude":"11.8037490844727","exists":"1","jname":"ギニアビサウ","jpnm":"ギニアビサウ共和国","jpni":"ギニアビサウ","logo":"gw","country":"1","kata":"ギニアビサウ","akas":"カ","lcr":"#BF7953","ename":"Guinea-Bissau","alph":"G","region":"Africa","region_ja":"アフリカ"},"TL":{"id":"626","name":"Timor-Leste","iso3":"TLS","iso2":"TL","longitude":"125.7275390625","latitude":"-8.87421703338623","exists":"1","jname":"東ティモール","jpnm":"東ティモール民主共和国","jpni":"東ティモール","logo":"tl","country":"1","kata":"ヒガシティモール","akas":"ハ","lcr":"#F5A5EF","ename":"Timor-Leste","alph":"T","region":"Asia","region_ja":"アジア"},"PR":{"id":"630","name":"Puerto Rico","iso3":"PRI","iso2":"PR","longitude":"-66.47373","latitude":"18.22964","exists":"1","jname":"プエルトリコ","jpnm":"プエルトリコ","jpni":"プエルトリコ","logo":"pr","country":"1","kata":"プエルトリコ","akas":"ハ","lcr":"#55ED7F","ename":"Puerto Rico","alph":"P","region":"Americas","region_ja":"アメリカ"},"QA":{"id":"634","name":"Qatar","iso3":"QAT","iso2":"QA","longitude":"51.1838836669922","latitude":"25.3548259735107","exists":"1","jname":"カタール","jpnm":"カタール国","jpni":"カタール","logo":"qa","country":"1","kata":"カタール","akas":"カ","lcr":"#51B5D5","ename":"Qatar","alph":"Q","region":"Asia","region_ja":"アジア"},"RE":{"id":"638","name":"Réunion","iso3":"REU","iso2":"RE","longitude":"55.5363845825195","latitude":"-21.115140914917","exists":"1","jname":"","jpnm":"レユニオン","jpni":"レユニオン","logo":"re","country":"1","kata":"レユニオン","akas":"ラ","lcr":"#D5DFDD","ename":"Réunion","alph":"R","region":"Africa","region_ja":"アフリカ"},"RO":{"id":"642","name":"Romania","iso3":"ROU","iso2":"RO","longitude":"24.966760635376","latitude":"45.9431610107422","exists":"1","jname":"ルーマニア","jpnm":"ルーマニア","jpni":"ルーマニア","logo":"ro","country":"1","kata":"ルーマニア","akas":"ラ","lcr":"#B69DAD","ename":"Romania","alph":"R","region":"Europe","region_ja":"ヨーロッパ"},"RU":{"id":"643","name":"Russian Federation","iso3":"RUS","iso2":"RU","longitude":"105.318756103516","latitude":"61.5240097045898","exists":"1","jname":"ロシア連邦","jpnm":"ロシア連邦","jpni":"ロシア連邦","logo":"ru","country":"1","kata":"ロシア連邦","akas":"ラ","lcr":"#BFCE1D","ename":"Russia","alph":"R","region":"Europe","region_ja":"ヨーロッパ"},"RW":{"id":"646","name":"Rwanda","iso3":"RWA","iso2":"RW","longitude":"29.8738880157471","latitude":"-1.94027805328369","exists":"1","jname":"ルワンダ","jpnm":"ルワンダ共和国","jpni":"ルワンダ","logo":"rw","country":"1","kata":"ルワンダ","akas":"ラ","lcr":"#B2F748","ename":"Rwanda","alph":"R","region":"Africa","region_ja":"アフリカ"},"BL":{"id":"652","name":"Saint Barthélemy","iso3":"BLM","iso2":"BL","longitude":"","latitude":"","exists":"1","jname":"","jpnm":"サン・バルテルミー島","jpni":"サン・バルテルミー島","logo":"bl","country":"1","kata":"サン・バルテルミー島","akas":"サ","lcr":"#B9F2E5","ename":"Saint Barthélemy","alph":"S","region":"Americas","region_ja":"アメリカ"},"SH":{"id":"654","name":"Saint Helena","iso3":"SHN","iso2":"SH","longitude":"-5.71152830123901","latitude":"-15.9656000137329","exists":"1","jname":"","jpnm":"セントヘレナ島","jpni":"セントヘレナ島","logo":"sh","country":"1","kata":"セントヘレナ島","akas":"サ","lcr":"#9AACF4","ename":"Saint Helena","alph":"S","region":"Africa","region_ja":"アフリカ"},"KN":{"id":"659","name":"Saint Kitts and Nevis","iso3":"KNA","iso2":"KN","longitude":"-62.7829971313477","latitude":"17.3578224182129","exists":"1","jname":"セントクリストファー・ネイビス","jpnm":"セントクリストファー・ネイビス","jpni":"セントクリストファー・ネイビス","logo":"kn","country":"1","kata":"セントクリストファー・ネイビス","akas":"サ","lcr":"#C6DC93","ename":"Saint Kitts and Nevis","alph":"S","region":"Americas","region_ja":"アメリカ"},"AI":{"id":"660","name":"Anguilla","iso3":"AIA","iso2":"AI","longitude":"-63.0686149597168","latitude":"18.2205543518066","exists":"1","jname":"","jpnm":"アンギラ","jpni":"アンギラ","logo":"ai","country":"1","kata":"アンギラ","akas":"ア","lcr":"#59D35E","ename":"Anguilla","alph":"A","region":"Americas","region_ja":"アメリカ"},"LC":{"id":"662","name":"Saint Lucia","iso3":"LCA","iso2":"LC","longitude":"-60.96665","latitude":"13.9066","exists":"1","jname":"セントルシア","jpnm":"セントルシア","jpni":"セントルシア","logo":"lc","country":"1","kata":"セントルシア","akas":"サ","lcr":"#D0B99D","ename":"Saint Lucia","alph":"S","region":"Americas","region_ja":"アメリカ"},"MF":{"id":"663","name":"Saint Martin (French part)","iso3":"MAF","iso2":"MF","longitude":"","latitude":"","exists":"1","jname":"サン・マルタン (西インド諸島)","jpnm":"サン・マルタン島","jpni":"サン・マルタン (西インド諸島)","logo":"mf","country":"1","kata":"サン・マルタン (西インド諸島)","akas":"サ","lcr":"#F0FAF3","ename":"Saint Martin (French part)","alph":"S","region":"Americas","region_ja":"アメリカ"},"PM":{"id":"666","name":"Saint Pierre and Miquelon","iso3":"SPM","iso2":"PM","longitude":"-56.3158988952637","latitude":"46.8852005004883","exists":"1","jname":"","jpnm":"サンピエール島・ミクロン島","jpni":"サンピエール島・ミクロン島","logo":"pm","country":"1","kata":"サンピエール島・ミクロン島","akas":"サ","lcr":"#ECC11A","ename":"Saint Pierre and Miquelon","alph":"S","region":"Americas","region_ja":"アメリカ"},"VC":{"id":"670","name":"Saint Vincent and the Grenadines","iso3":"VCT","iso2":"VC","longitude":"-61.19134","latitude":"13.24775","exists":"1","jname":"セントビンセント・グレナディーン","jpnm":"セントビンセントおよびグレナディーン諸島","jpni":"セントビンセント・グレナディーン","logo":"vc","country":"1","kata":"セントビンセント・グレナディーン","akas":"サ","lcr":"#C5BCDF","ename":"Saint Vincent and the Grenadines","alph":"S","region":"Americas","region_ja":"アメリカ"},"SM":{"id":"674","name":"San Marino","iso3":"SMR","iso2":"SM","longitude":"12.4577770233154","latitude":"43.9423599243164","exists":"1","jname":"サンマリノ","jpnm":"サンマリノ共和国","jpni":"サンマリノ","logo":"sm","country":"1","kata":"サンマリノ","akas":"サ","lcr":"#C6DEB1","ename":"San Marino","alph":"S","region":"Europe","region_ja":"ヨーロッパ"},"ST":{"id":"678","name":"Sao Tome and Principe","iso3":"STP","iso2":"ST","longitude":"6.61308097839355","latitude":"0.186360001564026","exists":"1","jname":"サントメ・プリンシペ","jpnm":"サントメ・プリンシペ民主共和国","jpni":"サントメ・プリンシペ","logo":"st","country":"1","kata":"サントメ・プリンシペ","akas":"サ","lcr":"#ECEB66","ename":"Sao Tome and Principe","alph":"S","region":"Africa","region_ja":"アフリカ"},"SA":{"id":"682","name":"Saudi Arabia","iso3":"SAU","iso2":"SA","longitude":"45.0791625976562","latitude":"23.8859424591064","exists":"1","jname":"サウジアラビア","jpnm":"サウジアラビア王国","jpni":"サウジアラビア","logo":"sa","country":"1","kata":"サウジアラビア","akas":"サ","lcr":"#3F79E2","ename":"Saudi Arabia","alph":"S","region":"Asia","region_ja":"アジア"},"SN":{"id":"686","name":"Senegal","iso3":"SEN","iso2":"SN","longitude":"-14.4523620605469","latitude":"14.4974012374878","exists":"1","jname":"セネガル","jpnm":"セネガル共和国","jpni":"セネガル","logo":"sn","country":"1","kata":"セネガル","akas":"サ","lcr":"#D9E9AD","ename":"Senegal","alph":"S","region":"Africa","region_ja":"アフリカ"},"RS":{"id":"688","name":"Serbia","iso3":"SRB","iso2":"RS","longitude":"21.005859375","latitude":"44.0165214538574","exists":"1","jname":"セルビア","jpnm":"セルビア共和国","jpni":"セルビア","logo":"rs","country":"1","kata":"セルビア","akas":"サ","lcr":"#D4A15A","ename":"Serbia","alph":"S","region":"Europe","region_ja":"ヨーロッパ"},"SC":{"id":"690","name":"Seychelles","iso3":"SYC","iso2":"SC","longitude":"55.4919776916504","latitude":"-4.67957401275635","exists":"1","jname":"セーシェル","jpnm":"セイシェル共和国","jpni":"セーシェル","logo":"sc","country":"1","kata":"セーシェル","akas":"サ","lcr":"#2EDB52","ename":"Seychelles","alph":"S","region":"Africa","region_ja":"アフリカ"},"SL":{"id":"694","name":"Sierra Leone","iso3":"SLE","iso2":"SL","longitude":"-11.7798891067505","latitude":"8.46055507659912","exists":"1","jname":"シエラレオネ","jpnm":"シエラレオネ共和国","jpni":"シエラレオネ","logo":"sl","country":"1","kata":"シエラレオネ","akas":"サ","lcr":"#A7E9A8","ename":"Sierra Leone","alph":"S","region":"Africa","region_ja":"アフリカ"},"SG":{"id":"702","name":"Singapore","iso3":"SGP","iso2":"SG","longitude":"103.819839477539","latitude":"1.35208296775818","exists":"1","jname":"シンガポール","jpnm":"シンガポール共和国","jpni":"シンガポール","logo":"sg","country":"1","kata":"シンガポール","akas":"サ","lcr":"#B374E3","ename":"Singapore","alph":"S","region":"Asia","region_ja":"アジア"},"SK":{"id":"703","name":"Slovakia","iso3":"SVK","iso2":"SK","longitude":"19.6990242004395","latitude":"48.6690254211426","exists":"1","jname":"スロバキア","jpnm":"スロバキア共和国","jpni":"スロバキア","logo":"sk","country":"1","kata":"スロバキア","akas":"サ","lcr":"#A45566","ename":"Slovakia","alph":"S","region":"Europe","region_ja":"ヨーロッパ"},"VN":{"id":"704","name":"Viet Nam","iso3":"VNM","iso2":"VN","longitude":"108.277198791504","latitude":"14.0583238601685","exists":"1","jname":"ベトナム","jpnm":"ベトナム社会主義共和国","jpni":"ベトナム","logo":"vn","country":"1","kata":"ベトナム","akas":"ハ","lcr":"#D0C9F5","ename":"Viet Nam","alph":"V","region":"Asia","region_ja":"アジア"},"SI":{"id":"705","name":"Slovenia","iso3":"SVN","iso2":"SI","longitude":"14.9954633712769","latitude":"46.1512413024902","exists":"1","jname":"スロベニア","jpnm":"スロベニア共和国","jpni":"スロベニア","logo":"si","country":"1","kata":"スロベニア","akas":"サ","lcr":"#4D2AC7","ename":"Slovenia","alph":"S","region":"Europe","region_ja":"ヨーロッパ"},"SO":{"id":"706","name":"Somalia","iso3":"SOM","iso2":"SO","longitude":"46.1996154785156","latitude":"5.15214920043945","exists":"1","jname":"ソマリア","jpnm":"ソマリア民主共和国","jpni":"ソマリア","logo":"so","country":"1","kata":"ソマリア","akas":"サ","lcr":"#9FB793","ename":"Somalia","alph":"S","region":"Africa","region_ja":"アフリカ"},"ZA":{"id":"710","name":"South Africa","iso3":"ZAF","iso2":"ZA","longitude":"22.9375057220459","latitude":"-30.5594825744629","exists":"1","jname":"南アフリカ共和国","jpnm":"南アフリカ共和国","jpni":"南アフリカ共和国","logo":"za","country":"1","kata":"ミナミアフリカキョウワコク","akas":"マ","lcr":"#EFA470","ename":"South Africa","alph":"S","region":"Africa","region_ja":"アフリカ"},"ZW":{"id":"716","name":"Zimbabwe","iso3":"ZWE","iso2":"ZW","longitude":"29.154857635498","latitude":"-19.015438079834","exists":"1","jname":"ジンバブエ","jpnm":"ジンバブエ共和国","jpni":"ジンバブエ","logo":"zw","country":"1","kata":"ジンバブエ","akas":"サ","lcr":"#4DC3C9","ename":"Zimbabwe","alph":"Z","region":"Africa","region_ja":"アフリカ"},"ES":{"id":"724","name":"Spain","iso3":"ESP","iso2":"ES","longitude":"-3.74921989440918","latitude":"40.4636688232422","exists":"1","jname":"スペイン","jpnm":"スペイン","jpni":"スペイン","logo":"es","country":"1","kata":"スペイン","akas":"サ","lcr":"#F058DA","ename":"Spain","alph":"S","region":"Europe","region_ja":"ヨーロッパ"},"SS":{"id":"728","name":"South Sudan","iso3":"SSD","iso2":"SS","longitude":"31.306978225708","latitude":"6.87699174880981","exists":"1","jname":"南スーダン","jpnm":"","jpni":"南スーダン","logo":"ss","country":"1","kata":"ミナミスーダン","akas":"マ","lcr":"#F7F3D7","ename":"South Sudan","alph":"S","region":"Africa","region_ja":"アフリカ"},"SD":{"id":"729","name":"Sudan","iso3":"SDN","iso2":"SD","longitude":"30.2176361083984","latitude":"12.8628072738647","exists":"1","jname":"スーダン","jpnm":"スーダン共和国","jpni":"スーダン","logo":"sd","country":"1","kata":"スーダン","akas":"サ","lcr":"#BBC2CA","ename":"Sudan","alph":"S","region":"Africa","region_ja":"アフリカ"},"EH":{"id":"732","name":"Western Sahara","iso3":"ESH","iso2":"EH","longitude":"-12.8858337402344","latitude":"24.2155265808105","exists":"1","jname":"","jpnm":"西サハラ","jpni":"西サハラ","logo":"eh","country":"1","kata":"ニシサハラ","akas":"ナ","lcr":"#E5F316","ename":"Western Sahara","alph":"W","region":"Africa","region_ja":"アフリカ"},"SR":{"id":"740","name":"Suriname","iso3":"SUR","iso2":"SR","longitude":"-56.0277824401855","latitude":"3.91930508613586","exists":"1","jname":"スリナム","jpnm":"スリナム共和国","jpni":"スリナム","logo":"sr","country":"1","kata":"スリナム","akas":"サ","lcr":"#D9F475","ename":"Suriname","alph":"S","region":"Americas","region_ja":"アメリカ"},"SZ":{"id":"748","name":"Eswatini","iso3":"SWZ","iso2":"SZ","longitude":"31.4658660888672","latitude":"-26.5225028991699","exists":"1","jname":"スワジランド","jpnm":"スワジランド王国","jpni":"スワジランド","logo":"sz","country":"1","kata":"スワジランド","akas":"サ","lcr":"#B48172","ename":"Eswatini","alph":"E","region":"Africa","region_ja":"アフリカ"},"SE":{"id":"752","name":"Sweden","iso3":"SWE","iso2":"SE","longitude":"18.6435012817383","latitude":"60.1281623840332","exists":"1","jname":"スウェーデン","jpnm":"スウェーデン王国","jpni":"スウェーデン","logo":"se","country":"1","kata":"スウェーデン","akas":"サ","lcr":"#AAF3BC","ename":"Sweden","alph":"S","region":"Europe","region_ja":"ヨーロッパ"},"CH":{"id":"756","name":"Switzerland","iso3":"CHE","iso2":"CH","longitude":"8.22751235961914","latitude":"46.818187713623","exists":"1","jname":"スイス","jpnm":"スイス連邦","jpni":"スイス","logo":"ch","country":"1","kata":"スイス","akas":"サ","lcr":"#40D3E5","ename":"Switzerland","alph":"S","region":"Europe","region_ja":"ヨーロッパ"},"SY":{"id":"760","name":"Syrian Arab Republic","iso3":"SYR","iso2":"SY","longitude":"38.9968147277832","latitude":"34.802074432373","exists":"1","jname":"シリア","jpnm":"シリア・アラブ共和国","jpni":"シリア","logo":"sy","country":"1","kata":"シリア","akas":"サ","lcr":"#ECA2AF","ename":"Syrian Arab Republic","alph":"S","region":"Asia","region_ja":"アジア"},"TJ":{"id":"762","name":"Tajikistan","iso3":"TJK","iso2":"TJ","longitude":"71.2760925292969","latitude":"38.8610343933105","exists":"1","jname":"タジキスタン","jpnm":"タジキスタン共和国","jpni":"タジキスタン","logo":"tj","country":"1","kata":"タジキスタン","akas":"タ","lcr":"#D4E1C2","ename":"Tajikistan","alph":"T","region":"Asia","region_ja":"アジア"},"TH":{"id":"764","name":"Thailand","iso3":"THA","iso2":"TH","longitude":"100.992538452148","latitude":"15.8700323104858","exists":"1","jname":"タイ","jpnm":"タイ王国","jpni":"タイ","logo":"th","country":"1","kata":"タイ","akas":"タ","lcr":"#55A2A1","ename":"Thailand","alph":"T","region":"Asia","region_ja":"アジア"},"TG":{"id":"768","name":"Togo","iso3":"TGO","iso2":"TG","longitude":"0.824782013893127","latitude":"8.61954307556152","exists":"1","jname":"トーゴ","jpnm":"トーゴ共和国","jpni":"トーゴ","logo":"tg","country":"1","kata":"トーゴ","akas":"タ","lcr":"#F377E8","ename":"Togo","alph":"T","region":"Africa","region_ja":"アフリカ"},"TK":{"id":"772","name":"Tokelau","iso3":"TKL","iso2":"TK","longitude":"-171.848403930664","latitude":"-9.20020008087158","exists":"1","jname":"","jpnm":"トケラウ諸島","jpni":"トケラウ諸島","logo":"tk","country":"1","kata":"トケラウ諸島","akas":"タ","lcr":"#DBF498","ename":"Tokelau","alph":"T","region":"Oceania","region_ja":"オセアニア"},"TO":{"id":"776","name":"Tonga","iso3":"TON","iso2":"TO","longitude":"-175.1982421875","latitude":"-21.1789855957031","exists":"1","jname":"トンガ","jpnm":"トンガ王国","jpni":"トンガ","logo":"to","country":"1","kata":"トンガ","akas":"タ","lcr":"#819130","ename":"Tonga","alph":"T","region":"Oceania","region_ja":"オセアニア"},"TT":{"id":"780","name":"Trinidad and Tobago","iso3":"TTO","iso2":"TT","longitude":"-61.2225036621094","latitude":"10.6918029785156","exists":"1","jname":"トリニダード・トバゴ","jpnm":"トリニダード・トバゴ共和国","jpni":"トリニダード・トバゴ","logo":"tt","country":"1","kata":"トリニダード・トバゴ","akas":"タ","lcr":"#B78086","ename":"Trinidad and Tobago","alph":"T","region":"Americas","region_ja":"アメリカ"},"AE":{"id":"784","name":"United Arab Emirates","iso3":"ARE","iso2":"AE","longitude":"53.8478164672851","latitude":"23.4240760803223","exists":"1","jname":"アラブ首長国連邦","jpnm":"アラブ首長国連邦","jpni":"アラブ首長国連邦","logo":"ae","country":"1","kata":"アラブ首長国連邦","akas":"ア","lcr":"#D3FA58","ename":"United Arab Emirates","alph":"U","region":"Asia","region_ja":"アジア"},"TN":{"id":"788","name":"Tunisia","iso3":"TUN","iso2":"TN","longitude":"9.53749942779541","latitude":"33.8869171142578","exists":"1","jname":"チュニジア","jpnm":"チュニジア共和国","jpni":"チュニジア","logo":"tn","country":"1","kata":"チュニジア","akas":"タ","lcr":"#48D5D4","ename":"Tunisia","alph":"T","region":"Africa","region_ja":"アフリカ"},"TR":{"id":"792","name":"Türkiye","iso3":"TUR","iso2":"TR","longitude":"35.2433204650879","latitude":"38.9637451171875","exists":"1","jname":"トルコ","jpnm":"トルコ共和国","jpni":"トルコ","logo":"tr","country":"1","kata":"トルコ","akas":"タ","lcr":"#BE9E99","ename":"Türkiye","alph":"T","region":"Asia","region_ja":"アジア"},"TM":{"id":"795","name":"Turkmenistan","iso3":"TKM","iso2":"TM","longitude":"59.5562782287598","latitude":"38.9697189331055","exists":"1","jname":"トルクメニスタン","jpnm":"トルクメニスタン","jpni":"トルクメニスタン","logo":"tm","country":"1","kata":"トルクメニスタン","akas":"タ","lcr":"#FA864F","ename":"Turkmenistan","alph":"T","region":"Asia","region_ja":"アジア"},"TC":{"id":"796","name":"Turks and Caicos Islands","iso3":"TCA","iso2":"TC","longitude":"-71.7979278564453","latitude":"21.6940250396729","exists":"1","jname":"タークス・カイコス諸島","jpnm":"タークス諸島・カイコス諸島","jpni":"タークス・カイコス諸島","logo":"tc","country":"1","kata":"タークス・カイコス諸島","akas":"タ","lcr":"#CFF8DF","ename":"Turks and Caicos Islands","alph":"T","region":"Americas","region_ja":"アメリカ"},"TV":{"id":"798","name":"Tuvalu","iso3":"TUV","iso2":"TV","longitude":"178.679916381836","latitude":"-7.47842073440552","exists":"1","jname":"ツバル","jpnm":"ツバル","jpni":"ツバル","logo":"tv","country":"1","kata":"ツバル","akas":"タ","lcr":"#48CAA5","ename":"Tuvalu","alph":"T","region":"Oceania","region_ja":"オセアニア"},"UG":{"id":"800","name":"Uganda","iso3":"UGA","iso2":"UG","longitude":"32.2902755737305","latitude":"1.37333297729492","exists":"1","jname":"ウガンダ","jpnm":"ウガンダ共和国","jpni":"ウガンダ","logo":"ug","country":"1","kata":"ウガンダ","akas":"ア","lcr":"#58A5B4","ename":"Uganda","alph":"U","region":"Africa","region_ja":"アフリカ"},"UA":{"id":"804","name":"Ukraine","iso3":"UKR","iso2":"UA","longitude":"31.1655807495117","latitude":"48.3794326782227","exists":"1","jname":"ウクライナ","jpnm":"ウクライナ","jpni":"ウクライナ","logo":"ua","country":"1","kata":"ウクライナ","akas":"ア","lcr":"#9423EE","ename":"Ukraine","alph":"U","region":"Europe","region_ja":"ヨーロッパ"},"MK":{"id":"807","name":"North Macedonia","iso3":"MKD","iso2":"MK","longitude":"21.7452754974365","latitude":"41.6086349487305","exists":"1","jname":"マケドニア共和国","jpnm":"マケドニア旧ユーゴスラビア共和国","jpni":"マケドニア共和国","logo":"mk","country":"1","kata":"マケドニア共和国","akas":"マ","lcr":"#3770B0","ename":"North Macedonia","alph":"N","region":"Europe","region_ja":"ヨーロッパ"},"EG":{"id":"818","name":"Egypt","iso3":"EGY","iso2":"EG","longitude":"30.8024978637695","latitude":"26.8205528259277","exists":"1","jname":"エジプト","jpnm":"エジプト・アラブ共和国","jpni":"エジプト","logo":"eg","country":"1","kata":"エジプト","akas":"ア","lcr":"#EBDAF8","ename":"Egypt","alph":"E","region":"Africa","region_ja":"アフリカ"},"GB":{"id":"826","name":"United Kingdom","iso3":"GBR","iso2":"GB","longitude":"-3.43597292900085","latitude":"55.3780517578125","exists":"1","jname":"イギリス","jpnm":"グレートブリテンおよび北部アイルランド連合王国(英国)","jpni":"イギリス","logo":"gb","country":"1","kata":"イギリス","akas":"ア","lcr":"#8AB6A6","ename":"United Kingdom","alph":"U","region":"Europe","region_ja":"ヨーロッパ"},"GG":{"id":"831","name":"Guernsey","iso3":"GGY","iso2":"GG","longitude":"","latitude":"","exists":"1","jname":"","jpnm":"ガーンジー島","jpni":"ガーンジー島","logo":"gg","country":"1","kata":"ガーンジー島","akas":"カ","lcr":"#D24CF2","ename":"Guernsey","alph":"G","region":"Europe","region_ja":"ヨーロッパ"},"JE":{"id":"832","name":"Jersey","iso3":"JEY","iso2":"JE","longitude":"","latitude":"","exists":"1","jname":"","jpnm":"ジャージー島","jpni":"ジャージー島","logo":"je","country":"1","kata":"ジャージー島","akas":"サ","lcr":"#42D7F6","ename":"Jersey","alph":"J","region":"Europe","region_ja":"ヨーロッパ"},"IM":{"id":"833","name":"Isle of Man","iso3":"IMN","iso2":"IM","longitude":"-4.54805612564087","latitude":"54.2361068725586","exists":"1","jname":"マン島","jpnm":"マン島","jpni":"マン島","logo":"im","country":"1","kata":"マン島","akas":"マ","lcr":"#CAC672","ename":"Isle of Man","alph":"I","region":"Europe","region_ja":"ヨーロッパ"},"TZ":{"id":"834","name":"United Republic of Tanzania","iso3":"TZA","iso2":"TZ","longitude":"34.8888206481934","latitude":"-6.36902809143066","exists":"1","jname":"タンザニア","jpnm":"タンザニア連合共和国","jpni":"タンザニア","logo":"tz","country":"1","kata":"タンザニア","akas":"タ","lcr":"#F58DDD","ename":"Tanzania","alph":"T","region":"Africa","region_ja":"アフリカ"},"US":{"id":"840","name":"United States of America","iso3":"USA","iso2":"US","longitude":"-95.712890625","latitude":"37.0902404785156","exists":"1","jname":"アメリカ合衆国","jpnm":"アメリカ合衆国(米国)","jpni":"アメリカ合衆国","logo":"us","country":"1","kata":"アメリカ合衆国","akas":"ア","lcr":"#D8D6A9","ename":"United States","alph":"U","region":"Americas","region_ja":"アメリカ"},"VI":{"id":"850","name":"United States Virgin Islands","iso3":"VIR","iso2":"VI","longitude":"-64.77552","latitude":"17.74046","exists":"1","jname":"アメリカ領ヴァージン諸島","jpnm":"米領バージン諸島","jpni":"アメリカ領ヴァージン諸島","logo":"vi","country":"1","kata":"アメリカ領ヴァージン諸島","akas":"ア","lcr":"#EA841E","ename":"United States Virgin Islands","alph":"U","region":"Americas","region_ja":"アメリカ"},"BF":{"id":"854","name":"Burkina Faso","iso3":"BFA","iso2":"BF","longitude":"-1.5615930557251","latitude":"12.2383327484131","exists":"1","jname":"ブルキナファソ","jpnm":"ブルキナファソ","jpni":"ブルキナファソ","logo":"bf","country":"1","kata":"ブルキナファソ","akas":"ハ","lcr":"#C86B3F","ename":"Burkina Faso","alph":"B","region":"Africa","region_ja":"アフリカ"},"UY":{"id":"858","name":"Uruguay","iso3":"URY","iso2":"UY","longitude":"-55.7658348083496","latitude":"-32.522777557373","exists":"1","jname":"ウルグアイ","jpnm":"ウルグアイ東方共和国","jpni":"ウルグアイ","logo":"uy","country":"1","kata":"ウルグアイ","akas":"ア","lcr":"#E65969","ename":"Uruguay","alph":"U","region":"Americas","region_ja":"アメリカ"},"UZ":{"id":"860","name":"Uzbekistan","iso3":"UZB","iso2":"UZ","longitude":"64.5852584838867","latitude":"41.3774909973145","exists":"1","jname":"ウズベキスタン","jpnm":"ウズベキスタン共和国","jpni":"ウズベキスタン","logo":"uz","country":"1","kata":"ウズベキスタン","akas":"ア","lcr":"#DB80E7","ename":"Uzbekistan","alph":"U","region":"Asia","region_ja":"アジア"},"VE":{"id":"862","name":"Venezuela (Bolivarian Republic of)","iso3":"VEN","iso2":"VE","longitude":"-66.589729309082","latitude":"6.42374992370605","exists":"1","jname":"ベネズエラ","jpnm":"ベネズエラ・ボリバル共和国","jpni":"ベネズエラ","logo":"ve","country":"1","kata":"ベネズエラ","akas":"ハ","lcr":"#E1F6D0","ename":"Venezuela","alph":"V","region":"Americas","region_ja":"アメリカ"},"WF":{"id":"876","name":"Wallis and Futuna Islands","iso3":"WLF","iso2":"WF","longitude":"-178.116500854492","latitude":"-14.2938003540039","exists":"1","jname":"","jpnm":"ワリス・フテュナ諸島","jpni":"ワリス・フテュナ諸島","logo":"wf","country":"1","kata":"ワリス・フテュナ諸島","akas":"ワ","lcr":"#F3BCD8","ename":"Wallis and Futuna Islands","alph":"W","region":"Oceania","region_ja":"オセアニア"},"WS":{"id":"882","name":"Samoa","iso3":"WSM","iso2":"WS","longitude":"-172.104629516602","latitude":"-13.7590293884277","exists":"1","jname":"サモア","jpnm":"サモア独立国","jpni":"サモア","logo":"ws","country":"1","kata":"サモア","akas":"サ","lcr":"#9A7896","ename":"Samoa","alph":"S","region":"Oceania","region_ja":"オセアニア"},"YE":{"id":"887","name":"Yemen","iso3":"YEM","iso2":"YE","longitude":"48.5163879394531","latitude":"15.5527267456055","exists":"1","jname":"イエメン","jpnm":"イエメン共和国","jpni":"イエメン","logo":"ye","country":"1","kata":"イエメン","akas":"ア","lcr":"#26D074","ename":"Yemen","alph":"Y","region":"Asia","region_ja":"アジア"},"ZM":{"id":"894","name":"Zambia","iso3":"ZMB","iso2":"ZM","longitude":"27.8493328094482","latitude":"-13.1338968276978","exists":"1","jname":"ザンビア","jpnm":"ザンビア共和国","jpni":"ザンビア","logo":"zm","country":"1","kata":"ザンビア","akas":"サ","lcr":"#C0C98F","ename":"Zambia","alph":"Z","region":"Africa","region_ja":"アフリカ"},"1W":{"id":"900","name":"World","iso3":"WLD","iso2":"1W","longitude":"","latitude":"","exists":"1","jname":"","jpnm":"","jpni":"世界","logo":"z1","country":"1","kata":"セカイ","akas":"サ","lcr":"#724199","ename":"World","alph":"W","region":"","region_ja":""},"RD":{"id":"901","name":"Developed regions","iso3":"RDD","iso2":"RD","longitude":"","latitude":"","exists":"1","jname":"","jpnm":"","jpni":"","logo":"","country":"0","kata":"","akas":"","lcr":"#7DCEEF","ename":"Developed regions","alph":"D","region":"","region_ja":""},"DR":{"id":"902","name":"Developing regions","iso3":"DGR","iso2":"DR","longitude":"","latitude":"","exists":"1","jname":"","jpnm":"","jpni":"","logo":"","country":"0","kata":"","akas":"","lcr":"#D6B1A7","ename":"Developing regions","alph":"D","region":"","region_ja":""},"A9":{"id":"903","name":"Africa","iso3":"AFR","iso2":"A9","longitude":"","latitude":"","exists":"1","jname":"","jpnm":"","jpni":"アフリカ","logo":"z1","country":"1","kata":"アフリカ","akas":"ア","lcr":"#4AEAED","ename":"Africa","alph":"A","region":"","region_ja":""},"ZJ":{"id":"904","name":"Latin America and the Caribbean","iso3":"LCN","iso2":"ZJ","longitude":"","latitude":"","exists":"1","jname":"","jpnm":"","jpni":"","logo":"","country":"0","kata":"","akas":"","lcr":"#D851B4","ename":"Latin America and the Caribbean","alph":"L","region":"","region_ja":""},"XU":{"id":"905","name":"Northern America","iso3":"NAC","iso2":"XU","longitude":"","latitude":"","exists":"1","jname":"","jpnm":"","jpni":"北アメリカ","logo":"z1","country":"1","kata":"キタアメリカ","akas":"カ","lcr":"#A330DE","ename":"Northern America","alph":"N","region":"","region_ja":""},"EA":{"id":"906","name":"Eastern Asia","iso3":"EAA","iso2":"EA","longitude":"","latitude":"","exists":"1","jname":"","jpnm":"","jpni":"","logo":"ea","country":"0","kata":"","akas":"","lcr":"#5171EB","ename":"Eastern Asia","alph":"E","region":"","region_ja":""},"EP":{"id":"908","name":"Europe","iso3":"EUR","iso2":"EP","longitude":"","latitude":"","exists":"1","jname":"","jpnm":"","jpni":"ヨーロッパ","logo":"z1","country":"1","kata":"ヨーロッパ","akas":"ヤ","lcr":"#8D7EE4","ename":"Europe","alph":"E","region":"","region_ja":""},"OA":{"id":"909","name":"Oceania","iso3":"OCE","iso2":"OA","longitude":"","latitude":"","exists":"1","jname":"","jpnm":"","jpni":"オセアニア","logo":"z1","country":"1","kata":"オセアニア","akas":"ア","lcr":"#9ED8A7","ename":"Oceania","alph":"O","region":"","region_ja":""},"EF":{"id":"910","name":"Eastern Africa","iso3":"EAF","iso2":"EF","longitude":"","latitude":"","exists":"1","jname":"","jpnm":"","jpni":"","logo":"","country":"0","kata":"","akas":"","lcr":"#D8FA26","ename":"Eastern Africa","alph":"E","region":"","region_ja":""},"AP":{"id":"911","name":"Middle Africa","iso3":"MIA","iso2":"AP","longitude":"","latitude":"","exists":"1","jname":"","jpnm":"","jpni":"","logo":"","country":"0","kata":"","akas":"","lcr":"#F6EEB2","ename":"Middle Africa","alph":"M","region":"","region_ja":""},"M2":{"id":"912","name":"Northern Africa","iso3":"NAF","iso2":"M2","longitude":"","latitude":"","exists":"1","jname":"","jpnm":"","jpni":"","logo":"","country":"0","kata":"","akas":"","lcr":"#B3F51A","ename":"Northern Africa","alph":"N","region":"","region_ja":""},"SF":{"id":"913","name":"Southern Africa","iso3":"SAF","iso2":"SF","longitude":"","latitude":"","exists":"1","jname":"","jpnm":"","jpni":"","logo":"","country":"0","kata":"","akas":"","lcr":"#94A463","ename":"Southern Africa","alph":"S","region":"","region_ja":""},"WA":{"id":"914","name":"Western Africa","iso3":"WAF","iso2":"WA","longitude":"","latitude":"","exists":"1","jname":"","jpnm":"","jpni":"","logo":"","country":"0","kata":"","akas":"","lcr":"#3EA4EC","ename":"Western Africa","alph":"W","region":"","region_ja":""},"CB":{"id":"915","name":"Caribbean","iso3":"CAR","iso2":"CB","longitude":"","latitude":"","exists":"1","jname":"","jpnm":"","jpni":"","logo":"","country":"0","kata":"","akas":"","lcr":"#5364BC","ename":"Caribbean","alph":"C","region":"","region_ja":""},"L6":{"id":"916","name":"Central America","iso3":"MCA","iso2":"L6","longitude":"","latitude":"","exists":"1","jname":"","jpnm":"","jpni":"","logo":"","country":"0","kata":"","akas":"","lcr":"#9AE5ED","ename":"Central America","alph":"C","region":"","region_ja":""},"SQ":{"id":"920","name":"South-Eastern Asia","iso3":"SEA","iso2":"SQ","longitude":"","latitude":"","exists":"1","jname":"","jpnm":"","jpni":"","logo":"","country":"0","kata":"","akas":"","lcr":"#405CE7","ename":"South-Eastern Asia","alph":"S","region":"","region_ja":""},"WB":{"id":"922","name":"Western Asia","iso3":"WAS","iso2":"WB","longitude":"","latitude":"","exists":"1","jname":"","jpnm":"","jpni":"","logo":"","country":"0","kata":"","akas":"","lcr":"#2D8341","ename":"Western Asia","alph":"W","region":"","region_ja":""},"EO":{"id":"923","name":"Eastern Europe","iso3":"EEU","iso2":"EO","longitude":"","latitude":"","exists":"1","jname":"","jpnm":"","jpni":"","logo":"","country":"0","kata":"","akas":"","lcr":"#8BD983","ename":"Eastern Europe","alph":"E","region":"","region_ja":""},"NB":{"id":"924","name":"Northern Europe","iso3":"NEU","iso2":"NB","longitude":"","latitude":"","exists":"1","jname":"","jpnm":"","jpni":"","logo":"","country":"0","kata":"","akas":"","lcr":"#CD93DB","ename":"Northern Europe","alph":"N","region":"","region_ja":""},"ED":{"id":"925","name":"Southern Europe","iso3":"SEU","iso2":"ED","longitude":"","latitude":"","exists":"1","jname":"","jpnm":"","jpni":"","logo":"","country":"0","kata":"","akas":"","lcr":"#A93674","ename":"Southern Europe","alph":"S","region":"","region_ja":""},"WU":{"id":"926","name":"Western Europe","iso3":"WEU","iso2":"WU","longitude":"","latitude":"","exists":"1","jname":"","jpnm":"","jpni":"","logo":"","country":"0","kata":"","akas":"","lcr":"#8DDE9B","ename":"Western Europe","alph":"W","region":"","region_ja":""},"ZL":{"id":"927","name":"Australia/New Zealand","iso3":"ANZ","iso2":"ZL","longitude":"","latitude":"","exists":"1","jname":"","jpnm":"","jpni":"","logo":"","country":"0","kata":"","akas":"","lcr":"#28757F","ename":"Australia/New Zealand","alph":"A","region":"","region_ja":""},"MB":{"id":"928","name":"Melanesia","iso3":"MEL","iso2":"MB","longitude":"","latitude":"","exists":"1","jname":"","jpnm":"","jpni":"","logo":"","country":"0","kata":"","akas":"","lcr":"#8ADBCF","ename":"Melanesia","alph":"M","region":"","region_ja":""},"AJ":{"id":"931","name":"South America","iso3":"SAM","iso2":"AJ","longitude":"","latitude":"","exists":"1","jname":"","jpnm":"","jpni":"南アメリカ","logo":"z1","country":"1","kata":"ミナミアメリカ","akas":"マ","lcr":"#987CF1","ename":"South America","alph":"S","region":"","region_ja":""},"OD":{"id":"934","name":"Other developing regions","iso3":"ODR","iso2":"OD","longitude":"","latitude":"","exists":"1","jname":"","jpnm":"","jpni":"","logo":"","country":"0","kata":"","akas":"","lcr":"#E9BEE3","ename":"Other developing regions","alph":"O","region":"","region_ja":""},"AA":{"id":"935","name":"Asia","iso3":"ASI","iso2":"AA","longitude":"","latitude":"","exists":"1","jname":"","jpnm":"","jpni":"アジア","logo":"z1","country":"1","kata":"アジア","akas":"ア","lcr":"#5BDFC1","ename":"Asia","alph":"A","region":"","region_ja":""},"XL":{"id":"941","name":"Least developed countries","iso3":"LDC","iso2":"XL","longitude":"","latitude":"","exists":"1","jname":"","jpnm":"","jpni":"","logo":"","country":"0","kata":"","akas":"","lcr":"#EEB763","ename":"Least developed countries","alph":"L","region":"","region_ja":""},"AH":{"id":"947","name":"Sub-Saharan Africa","iso3":"ASS","iso2":"AH","longitude":"","latitude":"","exists":"1","jname":"","jpnm":"","jpni":"","logo":"","country":"0","kata":"","akas":"","lcr":"#C5FB76","ename":"Sub-Saharan Africa","alph":"S","region":"","region_ja":""},"MJ":{"id":"954","name":"Micronesia","iso3":"MCN","iso2":"MJ","longitude":"","latitude":"","exists":"1","jname":"","jpnm":"","jpni":"","logo":"","country":"0","kata":"","akas":"","lcr":"#A6DBE6","ename":"Micronesia","alph":"M","region":"","region_ja":""},"PO":{"id":"957","name":"Polynesia","iso3":"PLY","iso2":"PO","longitude":"","latitude":"","exists":"1","jname":"","jpnm":"","jpni":"","logo":"","country":"0","kata":"","akas":"","lcr":"#BE9BBA","ename":"Polynesia","alph":"P","region":"","region_ja":""},"SW":{"id":"961","name":"Small island developing States (SIDS)","iso3":"SID","iso2":"SW","longitude":"","latitude":"","exists":"1","jname":"","jpnm":"","jpni":"","logo":"","country":"0","kata":"","akas":"","lcr":"#A4D7F3","ename":"Small island developing States (SIDS)","alph":"S","region":"","region_ja":""},"LD":{"id":"968","name":"Landlocked developing countries (LLDCs)","iso3":"LLD","iso2":"LD","longitude":"","latitude":"","exists":"1","jname":"","jpnm":"","jpni":"","logo":"","country":"0","kata":"","akas":"","lcr":"#D8A1D9","ename":"Landlocked developing countries (LLDCs)","alph":"L","region":"","region_ja":""},"XM":{"id":"1500","name":"Low-income countries","iso3":"LIC","iso2":"XM","longitude":"","latitude":"","exists":"1","jname":"","jpnm":"","jpni":"","logo":"","country":"0","kata":"","akas":"","lcr":"#A62AB4","ename":"Low-income countries","alph":"L","region":"","region_ja":""},"XN":{"id":"1501","name":"Lower-middle-income countries","iso3":"LMC","iso2":"XN","longitude":"","latitude":"","exists":"1","jname":"","jpnm":"","jpni":"","logo":"","country":"0","kata":"","akas":"","lcr":"#F18DBC","ename":"Lower-middle-income countries","alph":"L","region":"","region_ja":""},"XT":{"id":"1502","name":"Upper-middle-income countries","iso3":"UMC","iso2":"XT","longitude":"","latitude":"","exists":"1","jname":"","jpnm":"","jpni":"","logo":"","country":"0","kata":"","akas":"","lcr":"#9EE86D","ename":"Upper-middle-income countries","alph":"U","region":"","region_ja":""},"XD":{"id":"1503","name":"High-income countries","iso3":"HIC","iso2":"XD","longitude":"","latitude":"","exists":"1","jname":"","jpnm":"","jpni":"","logo":"","country":"0","kata":"","akas":"","lcr":"#F8DD29","ename":"High-income countries","alph":"H","region":"","region_ja":""},"M3":{"id":"1505","name":"Middle-income countries","iso3":"MIC","iso2":"M3","longitude":"","latitude":"","exists":"1","jname":"","jpnm":"","jpni":"","logo":"","country":"0","kata":"","akas":"","lcr":"#C667EC","ename":"Middle-income countries","alph":"M","region":"","region_ja":""},"N0":{"id":"1518","name":"No income group available","iso3":"NIG","iso2":"N0","longitude":"","latitude":"","exists":"1","jname":"","jpnm":"","jpni":"","logo":"","country":"0","kata":"","akas":"","lcr":"#EDF37F","ename":"No income group available","alph":"N","region":"","region_ja":""},"EN":{"id":"1829","name":"Europe and Northern America","iso3":"ENA","iso2":"EN","longitude":"","latitude":"","exists":"1","jname":"","jpnm":"","jpni":"","logo":"","country":"0","kata":"","akas":"","lcr":"#30F736","ename":"Europe and Northern America","alph":"E","region":"","region_ja":""},"CE":{"id":"1831","name":"Central and Southern Asia","iso3":"ACS","iso2":"CE","longitude":"","latitude":"","exists":"1","jname":"","jpnm":"","jpni":"","logo":"","country":"0","kata":"","akas":"","lcr":"#F3B8EB","ename":"Central and Southern Asia","alph":"C","region":"","region_ja":""},"EB":{"id":"1832","name":"Eastern and South-Eastern Asia","iso3":"ESA","iso2":"EB","longitude":"","latitude":"","exists":"1","jname":"","jpnm":"","jpni":"","logo":"","country":"0","kata":"","akas":"","lcr":"#C77F98","ename":"Eastern and South-Eastern Asia","alph":"E","region":"","region_ja":""},"NW":{"id":"1833","name":"Northern Africa and Western Asia","iso3":"NAW","iso2":"NW","longitude":"","latitude":"","exists":"1","jname":"","jpnm":"","jpni":"","logo":"","country":"0","kata":"","akas":"","lcr":"#82765E","ename":"Northern Africa and Western Asia","alph":"N","region":"","region_ja":""},"ZL.1":{"id":"1834","name":"Australia/New Zealand","iso3":"ANZ","iso2":"ZL","longitude":"","latitude":"","exists":"1","jname":"","jpnm":"","jpni":"","logo":"","country":"0","kata":"","akas":"","lcr":"#EFC9E3","ename":"Australia/New Zealand","alph":"A","region":"","region_ja":""},"OZ":{"id":"1835","name":"Oceania (excluding Australia and New Zealand)","iso3":"OCA","iso2":"OZ","longitude":"","latitude":"","exists":"1","jname":"","jpnm":"","jpni":"","logo":"","country":"0","kata":"","akas":"","lcr":"#EEF6A7","ename":"Oceania (excluding Australia and New Zealand)","alph":"O","region":"","region_ja":""},"CJ":{"id":"5500","name":"Central Asia","iso3":"CAS","iso2":"CJ","longitude":"","latitude":"","exists":"1","jname":"","jpnm":"","jpni":"","logo":"","country":"0","kata":"","akas":"","lcr":"#A289CE","ename":"Central Asia","alph":"C","region":"","region_ja":""},"8S":{"id":"5501","name":"Southern Asia","iso3":"SAS","iso2":"8S","longitude":"","latitude":"","exists":"1","jname":"","jpnm":"","jpni":"","logo":"","country":"0","kata":"","akas":"","lcr":"#A52FCB","ename":"Southern Asia","alph":"S","region":"","region_ja":""}}
